City_ID,City,Lat,Lng,Max Temp,Humidity,Cloudiness,Wind Speed,Country,Date
0,pundong,-7.9522,110.3486,301.92,77,83,2.86,ID,1712542205
1,bilibino,68.0546,166.4372,260.76,80,82,1.43,RU,1712542107
2,blackmans bay,-43.0167,147.3167,290.22,55,93,1.34,AU,1712542124
3,yellowknife,62.456,-114.3525,278.44,65,75,5.66,CA,1712541993
4,bandundu,-3.3167,17.3667,295.87,98,99,0.46,CD,1712542206
5,okhotsk,59.3833,143.3,271.68,94,100,5.89,RU,1712542041
6,port-aux-francais,-49.35,70.2167,278.65,58,84,6.55,TF,1712542071
7,kodiak,57.79,-152.4072,276.88,87,100,2.06,US,1712542206
8,morehead city,34.7229,-76.726,287.15,75,0,2.24,US,1712542177
9,undurkhaan,47.3194,110.6556,279.17,52,10,0.77,MN,1712542207
10,ribeira grande,38.5167,-28.7,288.02,89,92,1.79,PT,1712542207
11,touros,-5.1989,-35.4608,298.86,91,42,3.83,BR,1712541886
12,amga,60.8953,131.9608,267.89,85,100,2.77,RU,1712542208
13,invercargill,-46.4,168.35,290.38,75,100,3.58,NZ,1712542208
14,puerto natales,-51.7236,-72.4875,276.83,71,100,5.03,CL,1712542208
15,ilulissat,69.2167,-51.1,263.16,92,100,0.0,GL,1712542208
16,tofol,5.3248,163.0078,303.03,79,100,5.14,FM,1712542208
17,mugia,43.1041,-9.2179,285.88,95,100,14.54,ES,1712542127
18,ushuaia,-54.8,-68.3,274.96,93,100,2.06,AR,1712541936
19,adamstown,-25.066,-130.1015,297.07,86,83,4.56,PN,1712542209
20,uliastay,47.7417,96.8444,277.02,54,92,0.98,MN,1712542209
21,rongelap,11.1635,166.8941,300.42,81,100,9.06,MH,1712542153
22,fuglafjordur,62.244,-6.814,281.41,95,100,7.87,FO,1712542209
23,grytviken,-54.2811,-36.5092,274.85,76,4,3.45,GS,1712542072
24,belyy yar,53.6039,91.3903,273.09,55,40,5.0,RU,1712542210
25,olonkinbyen,70.9221,-8.7187,269.14,65,100,8.62,SJ,1712542210
26,bethel,41.3712,-73.414,279.68,62,0,2.06,US,1712542208
27,pacific grove,36.6177,-121.9166,288.12,76,75,7.15,US,1712541992
28,hamilton,39.1834,-84.5333,289.84,37,40,6.17,US,1712541915
29,borba,-4.3878,-59.5939,296.89,98,100,0.67,BR,1712542211
30,saint-philippe,-21.3585,55.7679,296.92,86,56,1.89,RE,1712542140
31,peniche,39.3558,-9.3811,288.46,93,72,9.45,PT,1712542211
32,moratuwa,6.773,79.8816,299.16,83,99,2.6,LK,1712542211
33,carnarvon,-24.8667,113.6333,301.83,38,5,3.81,AU,1712541971
34,yilan,24.757,121.753,298.18,70,26,1.23,TW,1712542211
35,belur,13.1667,75.8667,296.96,68,12,0.92,IN,1712542212
36,port elizabeth,-33.918,25.5701,292.09,92,100,1.79,ZA,1712542212
37,hilo,19.7297,-155.09,297.19,93,75,3.09,US,1712542069
38,waitangi,-43.9535,-176.5597,286.94,81,100,1.79,NZ,1712542083
39,puerto san jose,13.9256,-90.8244,302.33,72,88,3.85,GT,1712542089
40,harstad,68.799,16.5293,274.15,96,100,4.02,NO,1712542014
41,st. john's,47.5649,-52.7093,274.8,94,100,9.77,CA,1712542199
42,piton saint-leu,-21.2196,55.3151,295.21,73,0,3.09,RE,1712542213
43,edinburgh of the seven seas,-37.0676,-12.3116,291.59,95,100,7.26,SH,1712542081
44,shakawe,-18.3667,21.85,292.8,88,90,2.02,BW,1712542213
45,avarua,-21.2078,-159.775,300.18,89,40,2.57,CK,1712542213
46,fale old settlement,-9.3852,-171.2468,303.01,70,6,2.39,TK,1712542213
47,grand gaube,-20.0064,57.6608,298.36,90,8,2.64,MU,1712541885
48,margate,51.3813,1.3862,282.98,86,38,1.79,GB,1712542214
49,alice springs,-23.7,133.8833,298.9,22,4,4.12,AU,1712542214
50,polyarnyy,69.1989,33.4478,266.94,87,100,6.29,RU,1712541883
51,umm kaddadah,13.6017,26.6876,295.96,16,8,5.98,SD,1712542214
52,suva,-18.1416,178.4415,302.86,74,75,4.63,FJ,1712542023
53,moose jaw,50.4001,-105.5344,284.48,48,100,3.2,CA,1712542214
54,queenstown,-31.8976,26.8753,286.42,98,100,1.71,ZA,1712542215
55,caleta de carquin,-11.0925,-77.6267,295.42,83,100,3.64,PE,1712542212
56,ararat,39.8317,44.7049,284.34,65,100,3.64,AM,1712542215
57,seguela,7.9611,-6.6731,295.91,94,100,3.55,CI,1712542215
58,iqaluit,63.7506,-68.5145,254.83,93,15,4.02,CA,1712542076
59,nanakuli,21.3906,-158.1547,300.12,52,20,6.17,US,1712542215
60,alwar,27.5667,76.6,300.05,11,0,0.68,IN,1712542216
61,arraial do cabo,-22.9661,-42.0278,297.79,84,3,4.76,BR,1712542012
62,mossel bay,-34.1831,22.146,289.11,94,100,4.82,ZA,1712542214
63,leh,34.1667,77.5833,261.06,70,20,1.61,IN,1712542027
64,port alfred,-33.5906,26.891,291.03,89,100,1.34,ZA,1712541977
65,longyearbyen,78.2186,15.6401,255.06,78,40,2.06,SJ,1712542066
66,nurota,40.5614,65.6886,288.28,44,33,1.71,UZ,1712542217
67,uturoa,-16.7333,-151.4333,302.55,74,100,4.75,PF,1712541742
68,east london,-33.0153,27.9116,292.78,81,100,7.37,ZA,1712541886
69,cabo san lucas,22.8909,-109.9124,295.24,63,1,0.89,MX,1712541784
70,qaqortoq,60.7167,-46.0333,267.62,94,100,1.69,GL,1712542217
71,san lawrenz,36.0553,14.204,286.82,72,0,2.0,MT,1712542217
72,anadyr,64.75,177.4833,259.43,84,40,6.0,RU,1712542218
73,kavalerovo,44.2661,135.0572,282.9,62,77,5.81,RU,1712542218
74,bredasdorp,-34.5322,20.0403,291.2,95,100,10.11,ZA,1712542082
75,basco,20.4487,121.9702,300.55,84,12,7.94,PH,1712542218
76,guerrero negro,27.9769,-114.0611,288.43,67,43,8.89,MX,1712542219
77,hermanus,-34.4187,19.2345,290.26,93,100,9.84,ZA,1712542219
78,albany,42.6001,-73.9662,279.38,62,0,1.75,US,1712541897
79,hawaiian paradise park,19.5933,-154.9731,296.5,93,75,3.09,US,1712542219
80,geraldton,-28.7667,114.6,303.38,17,86,10.8,AU,1712542204
81,kachug,53.9606,105.8817,277.62,75,100,1.79,RU,1712542220
82,nikko,36.75,139.6167,286.86,92,100,2.41,JP,1712542220
83,khandyga,62.6667,135.6,266.21,86,100,1.83,RU,1712542076
84,west island,-12.1568,96.8225,302.14,74,40,5.66,CC,1712542089
85,badger,64.8,-147.5333,276.29,65,20,3.09,US,1712542168
86,pimentel,-6.8367,-79.9342,297.31,73,75,6.17,PE,1712542210
87,labytnangi,66.6572,66.4183,261.69,94,57,4.27,RU,1712542221
88,nahiyat ash shinafiyah,31.5874,44.6602,296.01,47,0,2.65,IQ,1712542221
89,stanley,54.868,-1.6985,280.21,79,0,2.06,GB,1712542138
90,ust-nera,64.5667,143.2,266.01,86,88,1.88,RU,1712542138
91,machico,32.7,-16.7667,291.88,80,20,1.54,PT,1712542222
92,mount isa,-20.7333,139.5,302.02,30,4,5.66,AU,1712542029
93,barakani,-12.1356,44.4317,301.23,80,100,3.47,KM,1712542155
94,egilsstadir,65.2653,-14.3948,272.86,97,100,10.08,IS,1712542222
95,papatowai,-46.5619,169.4708,288.7,65,100,2.18,NZ,1712542223
96,umea,63.8284,20.2597,274.77,100,0,1.54,SE,1712542223
97,nova sintra,14.8667,-24.7167,296.49,76,0,12.72,CV,1712541697
98,kilju,40.9642,129.3278,291.76,33,100,4.8,KP,1712542159
99,fort frances,48.5999,-93.4003,282.27,31,40,5.14,CA,1712542126
100,mtsamboro,-12.6998,45.0689,300.77,74,73,3.28,YT,1712542224
101,puerto maldonado,-12.6,-69.1833,297.5,94,100,0.98,PE,1712542224
102,georgetown,5.4112,100.3354,304.11,66,20,1.54,MY,1712541547
103,lorengau,-2.0226,147.2712,301.21,78,100,1.96,PG,1712542224
104,ciudad lazaro cardenas,17.9583,-102.2,297.1,75,25,3.79,MX,1712542160
105,north mackay,-21.1167,149.1833,303.53,76,14,4.97,AU,1712542225
106,tiksi,71.6872,128.8694,258.86,77,4,7.3,RU,1712542225
107,nantucket,41.2835,-70.0995,277.21,83,20,2.57,US,1712542105
108,lesnoy,57.6198,63.0784,274.41,98,100,2.42,RU,1712542225
109,haapajarvi,63.75,25.3333,274.51,98,100,5.74,FI,1712542225
110,cuatro cienegas de carranza,26.9833,-102.0833,293.31,16,43,2.76,MX,1712542203
111,cobram,-35.9167,145.65,293.85,49,0,3.65,AU,1712542213
112,karukh,34.4811,62.5863,289.66,23,100,2.05,AF,1712542226
113,afaahiti,-17.75,-149.2833,303.08,78,70,4.72,PF,1712542128
114,whitehorse,60.7161,-135.0538,276.49,51,100,2.68,CA,1712542226
115,juan rodriguez clara,17.9833,-95.4083,300.97,68,33,1.25,MX,1712542226
116,wailua homesteads,22.0669,-159.378,300.39,78,100,7.72,US,1712542227
117,san luis de la loma,17.2706,-100.8939,298.28,74,0,3.56,MX,1712542227
118,guymon,36.6828,-101.4816,287.15,23,0,2.57,US,1712541929
119,thompson,55.7435,-97.8558,273.94,96,53,1.34,CA,1712542028
120,toropets,56.4978,31.6353,281.76,90,76,3.88,RU,1712542227
121,meadow lake,34.8014,-106.5436,286.69,18,0,4.61,US,1712542227
122,vorkuta,67.5,64.0,260.99,96,97,5.36,RU,1712542017
123,kerikeri,-35.2268,173.9474,292.52,53,53,3.64,NZ,1712542091
124,lahij,13.1667,44.5833,297.0,76,52,2.01,YE,1712542228
125,ishinomaki,38.4167,141.3,288.11,91,100,3.15,JP,1712542228
126,kavaratti,10.5669,72.642,302.3,71,76,2.45,IN,1712542001
127,punta del este,-34.9667,-54.95,292.52,93,0,1.54,UY,1712542228
128,lihue,21.9789,-159.3672,300.73,73,100,7.72,US,1712542090
129,atar,20.5169,-13.0499,296.3,34,0,4.1,MR,1712542023
130,lebu,-37.6167,-73.65,286.25,98,100,2.52,CL,1712542229
131,petropavlovsk-kamchatsky,53.0452,158.6483,276.48,82,75,3.0,RU,1712542127
132,argo,37.6333,22.7333,287.66,69,0,7.89,GR,1712541969
133,mhamid,29.82,-5.72,296.29,20,59,2.2,MA,1712542230
134,rikaze,29.25,88.8833,277.18,36,0,1.42,CN,1712542210
135,bikenibeu village,1.3673,173.1241,301.36,81,28,7.63,KI,1712542230
136,san giovanni in fiore,39.2633,16.6996,284.85,41,0,1.6,IT,1712542230
137,chinsali,-10.5414,32.0816,290.18,98,98,1.57,ZM,1712542231
138,margaret river,-33.95,115.0667,292.11,50,3,5.63,AU,1712542085
139,persembe,41.0656,37.7714,282.83,72,100,2.74,TR,1712542231
140,tangalle,6.024,80.7911,299.24,84,100,1.57,LK,1712542170
141,durazno,-33.4131,-56.5006,288.05,92,0,2.88,UY,1712542045
142,nadi,-17.8,177.4167,304.15,62,40,6.69,FJ,1712541978
143,aasiaat,68.7098,-52.8699,264.72,92,98,1.81,GL,1712542232
144,laojunmiao,39.8333,97.7333,279.23,33,3,1.42,CN,1712542232
145,camiri,-20.05,-63.5167,294.36,99,100,0.99,BO,1712542232
146,karlskrona,56.1616,15.5866,281.4,93,100,2.06,SE,1712542021
147,fisterra,42.9049,-9.2629,285.79,95,100,14.19,ES,1712542037
148,nehe,48.4833,124.8333,271.45,25,0,5.01,CN,1712542233
149,keflavik,64.0049,-22.5624,274.1,74,40,11.32,IS,1712541998
150,constantia,44.1833,28.65,282.53,88,1,3.79,RO,1712541963
151,baikonur,45.6167,63.3167,285.94,59,100,3.5,KZ,1712542233
152,chernyshevskiy,63.0128,112.4714,270.83,97,100,4.03,RU,1712542234
153,santa ana de yacuma,-13.75,-65.4333,298.85,88,100,2.36,BO,1712542234
154,lensk,60.7253,114.9278,272.35,72,99,1.81,RU,1712542207
155,gusinoozyorsk,51.2833,106.5,277.9,66,83,1.09,RU,1712542234
156,zharkent,44.1628,80.0,284.34,63,100,2.43,KZ,1712542234
157,nouadhibou,20.931,-17.0347,291.14,72,0,9.26,MR,1712542219
158,saipan,15.1355,145.701,305.54,58,20,9.26,MP,1712542206
159,hithadhoo,-0.6,73.0833,301.87,73,100,2.09,MV,1712542235
160,paracuru,-3.41,-39.0306,299.88,88,100,1.59,BR,1712541950
161,tolanaro,-25.0319,46.9987,296.08,89,100,3.9,MG,1712542235
162,timimoun,29.2639,0.231,299.56,12,18,1.86,DZ,1712542193
163,saint-joseph,-21.3667,55.6167,296.36,86,61,1.7,RE,1712542174
164,maralal,1.0968,36.698,289.06,86,100,1.45,KE,1712542235
165,sisimiut,66.9395,-53.6735,266.68,89,97,4.09,GL,1712542236
166,utrik,11.2278,169.8474,300.18,82,100,9.18,MH,1712542148
167,najran,17.4924,44.1277,295.95,54,15,2.13,SA,1712542236
168,sinabang,2.4803,96.3801,301.51,80,77,1.31,ID,1712542008
169,mpika,-11.8343,31.4529,289.9,98,100,2.65,ZM,1712542236
170,sabang,5.8933,95.3214,302.19,70,24,4.65,ID,1712542236
171,masterton,-40.9597,175.6575,293.21,35,0,3.56,NZ,1712542072
172,spring creek,40.7266,-115.5859,275.77,59,89,4.47,US,1712541776
173,pierre,44.3683,-100.351,278.63,85,100,5.14,US,1712542141
174,trairi,-3.2778,-39.2689,297.45,93,98,1.58,BR,1712542200
175,shihezi,44.3,86.0333,288.16,44,100,2.65,CN,1712542237
176,sitka,57.0531,-135.33,277.09,81,100,4.63,US,1712541981
177,jamestown,42.097,-79.2353,281.95,42,0,4.12,US,1712541988
178,dapitan,8.6464,123.4208,301.67,72,57,6.36,PH,1712542238
179,udachny,66.4167,112.4,260.62,67,9,1.4,RU,1712542238
180,havre,49.5833,0.3333,283.02,87,0,4.12,FR,1712542001
181,teguise,29.0605,-13.564,289.27,63,75,6.17,ES,1712542238
182,nemuro,43.3236,145.575,277.75,99,100,5.44,JP,1712542238
183,san borja,-14.8167,-66.85,297.69,95,98,0.81,BO,1712541989
184,klyuchi,52.2667,79.1667,277.54,82,100,1.71,RU,1712542239
185,nuku'alofa,-21.1333,-175.2,299.13,75,100,10.22,TO,1712542239
186,akrehamn,59.2667,5.1833,283.15,87,100,8.23,NO,1712542239
187,charters towers,-20.1,146.2667,304.05,40,96,2.02,AU,1712542004
188,puerto ayora,-0.7393,-90.3518,298.46,99,96,0.89,EC,1712542240
189,kharp,66.8014,65.8081,261.32,89,55,3.24,RU,1712542240
190,jutai,-5.1833,-68.9,296.63,97,100,0.33,BR,1712542240
191,college,64.8569,-147.8028,276.33,64,20,3.09,US,1712542240
192,highworth,51.6305,-1.711,284.52,85,100,5.14,GB,1712542241
193,bhimunipatnam,17.8833,83.4333,301.88,78,25,5.32,IN,1712542143
194,tazovsky,67.4667,78.7,268.7,94,100,8.51,RU,1712542241
195,quellon,-43.1167,-73.6167,281.82,96,100,2.93,CL,1712542241
196,colonia,50.9333,6.95,287.57,85,0,2.57,DE,1712541965
197,fort bragg,35.139,-79.006,286.04,66,0,0.0,US,1712542209
198,kaiyuan,23.6977,103.3037,301.51,37,0,0.8,CN,1712542242
199,new norfolk,-42.7826,147.0587,290.88,56,73,4.18,AU,1712542022
200,bhinmal,25.0,72.25,300.1,31,1,1.04,IN,1712542242
201,polur,12.5,79.1333,299.91,63,34,1.94,IN,1712542242
202,ballina,-28.8667,153.5667,301.36,44,20,1.75,AU,1712542242
203,san patricio,28.017,-97.5169,297.55,89,100,4.59,US,1712542135
204,tupiza,-21.45,-65.7167,285.45,74,100,2.79,BO,1712542242
205,sherbakul',54.6316,72.3963,273.95,84,98,4.99,RU,1712542243
206,santiago de cao,-7.9589,-79.2392,294.22,83,40,5.14,PE,1712542243
207,mejit,10.2753,170.8646,300.23,81,100,9.69,MH,1712541882
208,neietsu,37.1845,128.4682,292.38,39,100,1.23,KR,1712542243
209,cannonvale,-20.2833,148.7,299.81,72,8,5.06,AU,1712542243
210,maffra,-37.9667,146.9833,292.78,59,45,3.18,AU,1712542243
211,dudinka,69.4058,86.1778,265.75,92,100,10.73,RU,1712542080
212,nieul-sur-mer,46.2058,-1.1645,284.18,94,0,3.6,FR,1712542244
213,manokwari,-0.8667,134.0833,300.3,85,99,3.05,ID,1712542081
214,papao,-17.75,-149.55,303.97,71,100,2.73,PF,1712541634
215,kasane,-17.8167,25.15,292.19,93,100,1.86,BW,1712542244
216,kismayo,-0.3582,42.5454,301.73,78,100,3.42,SO,1712541984
217,kokopo,-4.352,152.2633,301.73,77,78,3.84,PG,1712542218
218,crane,31.3974,-102.3501,293.93,10,0,3.52,US,1712542006
219,flying fish cove,-10.4217,105.6791,301.97,69,100,5.14,CX,1712542149
220,victorica,-36.2151,-65.4359,292.61,61,100,8.06,AR,1712542245
221,fortaleza,-3.7227,-38.5247,301.22,83,40,0.51,BR,1712541389
222,yazman,29.1212,71.7446,300.27,12,0,4.03,PK,1712542245
223,port mathurin,-19.6833,63.4167,300.08,81,16,4.87,MU,1712542246
224,saldanha,-33.0117,17.9442,287.09,94,61,3.87,ZA,1712542246
225,montlucon,46.3333,2.6,281.87,95,95,2.21,FR,1712542246
226,praia da vitoria,38.7333,-27.0667,288.01,86,92,2.43,PT,1712542246
227,ringkobing,56.0901,8.244,283.16,86,9,7.13,DK,1712542246
228,acarau,-2.8856,-40.12,298.18,90,100,2.1,BR,1712542247
229,la gi,10.6667,107.7833,303.79,58,10,5.04,VN,1712542247
230,pyay,18.8167,95.2167,304.8,53,1,1.42,MM,1712542247
231,kavieng,-2.5744,150.7967,301.33,78,93,1.95,PG,1712541995
232,thunder bay,48.4001,-89.3168,275.34,81,99,2.9,CA,1712542241
233,ancud,-41.8697,-73.8203,286.63,99,100,5.38,CL,1712542247
234,san marcos,33.1434,-117.1661,287.56,71,0,4.12,US,1712542248
235,awjilah,29.1081,21.2869,288.49,70,0,4.95,LY,1712542233
236,vilyuchinsk,52.9306,158.4028,277.3,88,89,0.64,RU,1712542125
237,kapa'a,22.0752,-159.319,301.14,78,100,7.72,US,1712542076
238,bentiu,9.2333,29.8333,299.88,64,87,0.79,SS,1712542248
239,ilabaya,-17.4208,-70.5133,293.99,74,100,0.91,PE,1712542248
240,villa huidobro,-34.8383,-64.5869,289.39,72,26,4.12,AR,1712542249
241,ingeniero jacobacci,-41.3427,-69.5448,288.61,56,100,6.57,AR,1712542249
242,christchurch,-43.5333,172.6333,295.67,71,0,5.66,NZ,1712542057
243,angra dos reis,-23.0067,-44.3181,296.49,90,65,1.21,BR,1712541883
244,port hedland,-20.3167,118.5667,306.18,15,100,10.8,AU,1712542249
245,susuman,62.7833,148.1667,262.58,72,67,0.89,RU,1712541975
246,kununurra,-15.7667,128.7333,303.14,35,2,6.17,AU,1712542250
247,bengkulu,-3.8004,102.2655,299.4,85,100,0.83,ID,1712542064
248,carutapera,-1.195,-46.02,297.61,93,100,2.21,BR,1712542250
249,chonchi,-42.6128,-73.8092,283.22,99,100,0.49,CL,1712542117
250,nadym,65.5333,72.5167,268.13,94,100,7.01,RU,1712542250
251,tres palos,18.1833,-101.6167,296.62,53,17,1.68,MX,1712542251
252,punta arenas,-53.15,-70.9167,276.21,81,20,10.29,CL,1712542251
253,poltavka,54.3663,71.7632,274.43,87,100,4.97,RU,1712542251
254,villa regina,-39.1,-67.0667,293.75,34,100,2.97,AR,1712541963
255,nagqu,31.5,92.0,274.38,17,99,5.5,CN,1712542147
256,mahina,-17.5065,-149.489,304.02,70,40,5.66,PF,1712542251
257,gorizia,45.9167,13.5,289.07,90,100,0.51,IT,1712542252
258,mount gambier,-37.8333,140.7667,289.89,61,100,4.68,AU,1712542230
259,igrim,63.1906,64.4162,266.66,96,63,2.64,RU,1712542252
260,nar'yan-mar,67.6713,53.087,261.54,90,91,4.92,RU,1712542145
261,ubari,26.5921,12.7805,291.52,14,0,2.77,LY,1712542144
262,fort st. john,56.2499,-120.8529,279.74,45,100,4.85,CA,1712542186
263,nikolayevsk-on-amure,53.1406,140.73,272.71,93,100,3.13,RU,1712542252
264,eastham,41.8301,-69.9739,278.12,87,0,1.54,US,1712542253
265,datia,25.6667,78.4667,300.75,10,0,1.11,IN,1712542253
266,taoudenni,22.6783,-3.9836,305.16,9,51,3.64,ML,1712542198
267,hashtrud,37.4779,47.0508,279.66,84,100,4.7,IR,1712542253
268,ulsteinvik,62.3432,5.8487,282.65,77,0,4.92,NO,1712542253
269,kalawit,8.0667,122.5167,303.29,65,100,5.3,PH,1712542253
270,novodvinsk,64.4165,40.8122,270.01,93,100,3.28,RU,1712541728
271,novo aripuana,-5.1206,-60.3797,296.94,98,86,0.6,BR,1712542254
272,la passe,45.5549,-0.8967,283.28,95,100,3.52,FR,1712542254
273,maryborough,-25.5333,152.7,298.77,62,41,1.22,AU,1712542254
274,nuuk,64.1835,-51.7216,269.49,86,20,2.57,GL,1712542200
275,erbaa,40.6689,36.5675,281.67,85,100,0.31,TR,1712542254
276,pachino,36.7186,15.0907,289.11,62,0,2.5,IT,1712542255
277,koratla,18.8167,78.7167,302.46,36,100,5.87,IN,1712542255
278,hargeysa,9.56,44.065,296.24,50,24,3.87,SO,1712542255
279,kapuskasing,49.4169,-82.4331,274.21,94,1,1.74,CA,1712542130
280,korla,41.7597,86.1469,288.1,21,99,2.07,CN,1712542255
281,adjumani,3.3779,31.7909,292.23,97,100,0.74,UG,1712542255
282,cave spring,37.2276,-80.0128,288.21,50,40,1.54,US,1712542256
283,la'ie,21.6477,-157.9253,300.13,69,11,4.47,US,1712542059
284,rosarito,32.3333,-117.0333,288.1,71,71,3.83,MX,1712542203
285,wake village,33.4268,-94.1063,292.21,47,0,0.0,US,1712542256
286,enewetak,11.3474,162.3373,300.6,78,49,8.4,MH,1712542256
287,kongsvinger,60.1905,11.9977,278.52,98,96,3.14,NO,1712542256
288,ancenis,47.3667,-1.1667,284.93,96,100,2.96,FR,1712542257
289,mizan teferi,6.9833,35.5833,289.65,95,58,1.19,ET,1712542257
290,vila velha,-20.3297,-40.2925,296.45,95,20,1.54,BR,1712541634
291,northam,51.0333,-4.2167,285.74,96,100,6.3,GB,1712542257
292,biltine,14.5333,20.9167,299.95,13,90,3.65,TD,1712542139
293,nampula,-15.1165,39.2666,293.24,99,68,1.72,MZ,1712542257
294,nova vicosa,-17.8919,-39.3719,298.84,78,94,4.02,BR,1712542258
295,tsaratanana,-16.7833,47.65,294.68,86,5,3.01,MG,1712542258
296,tura,25.5198,90.2201,301.88,41,99,2.35,IN,1712542179
297,laascaanood,8.4774,47.3597,295.69,90,92,2.71,SO,1712542258
298,bata,1.8639,9.7658,299.27,88,100,1.8,GQ,1712542258
299,zouerate,22.7187,-12.4521,292.88,46,0,8.94,MR,1712542138
300,kogalym,62.2654,74.4791,268.7,72,100,7.15,RU,1712542259
301,elesbao veloso,-6.2019,-42.1403,295.95,94,81,0.11,BR,1712542259
302,wadsworth,41.0256,-81.7299,285.87,76,37,3.91,US,1712542187
303,la ronge,55.1001,-105.2842,274.74,99,73,1.65,CA,1712542259
304,saint-pierre,-21.3393,55.4781,296.97,73,0,3.09,RE,1712542021
305,bei'an,24.5399,109.533,291.17,80,100,2.99,CN,1712542259
306,coari,-4.085,-63.1414,296.87,97,45,0.92,BR,1712542259
307,micco,27.8806,-80.5003,293.74,70,61,1.34,US,1712542260
308,tutoia,-2.7619,-42.2744,298.38,90,100,1.51,BR,1712542260
309,alofi,-19.0595,-169.9187,301.09,83,75,7.2,NU,1712542260
310,ajijic,20.3,-103.2833,299.0,33,58,4.09,MX,1712542260
311,vorgashor,67.5833,63.95,260.82,96,97,5.53,RU,1712542195
312,preobrazheniye,42.9019,133.9064,286.58,42,96,2.87,RU,1712542260
313,arkhangel'sk,64.5401,40.5433,270.21,100,100,5.0,RU,1712542061
314,livingstone,-17.8419,25.8543,292.64,96,100,1.81,ZM,1712542261
315,novaya igirma,57.1334,103.9112,270.94,82,100,5.39,RU,1712542261
316,mili,6.0815,171.735,301.16,84,97,9.89,MH,1712542261
317,mumbwa,-14.9783,27.0619,292.01,95,100,1.25,ZM,1712542261
318,pandan,14.0453,124.1694,302.11,70,50,3.64,PH,1712542262
319,howard springs,-12.497,131.047,304.75,65,57,3.42,AU,1712542152
320,rimouski,48.4488,-68.524,274.25,85,96,2.35,CA,1712541992
321,zhezqazghan,47.7833,67.7667,282.47,93,75,5.0,KZ,1712542262
322,machalpur,24.1333,76.3,300.73,19,4,1.99,IN,1712542262
323,kangding,30.0513,101.9603,281.38,100,100,1.63,CN,1712542017
324,mantua,45.1667,10.7833,289.31,91,100,0.45,IT,1712542263
325,namibe,-15.1961,12.1522,295.1,81,86,1.94,AO,1712542129
326,jayapura,-2.5333,140.7,304.81,77,100,1.71,ID,1712542263
327,hede,33.7681,120.2517,288.11,51,100,1.87,CN,1712542263
328,camacupa,-12.0167,17.4833,290.22,99,100,1.82,AO,1712542263
329,lazaro cardenas,17.9583,-102.2,297.1,75,25,3.79,MX,1712542176
330,luderitz,-26.6481,15.1594,286.68,91,8,1.77,NA,1712542074
331,island harbour,50.724,-1.2758,284.22,89,100,2.68,GB,1712542264
332,al jubayl,27.0112,49.6583,298.4,44,100,5.02,SA,1712542264
333,kailua-kona,19.6406,-155.9956,299.97,71,91,0.45,US,1712541841
334,filiatra,37.15,21.5833,286.79,70,1,1.95,GR,1712542264
335,manaure,11.7751,-72.4445,301.57,69,100,5.79,CO,1712542265
336,kyzyl,51.7,94.45,279.27,72,100,2.24,RU,1712542265
337,motygino,58.1831,94.7592,265.25,85,5,0.89,RU,1712542265
338,brady,31.1352,-99.3351,294.56,18,0,3.6,US,1712542265
339,sao gabriel da cachoeira,-0.1303,-67.0892,296.83,98,17,1.06,BR,1712542091
340,darwin,-12.4611,130.8418,304.79,46,0,5.66,AU,1712542080
341,kone,-21.0595,164.8658,305.27,43,100,2.81,NC,1712542266
342,westport,41.1415,-73.3579,280.38,73,0,2.57,US,1712542238
343,souillac,-20.5167,57.5167,296.12,89,2,1.84,MU,1712542255
344,labrador city,52.9463,-66.9114,270.11,95,100,1.55,CA,1712542266
345,weno,7.4515,151.8468,302.12,89,100,3.09,FM,1712542266
346,monschau,50.55,6.25,284.53,96,75,1.03,DE,1712541977
347,nova xavantina,-14.6667,-52.35,296.92,95,100,0.72,BR,1712541841
348,veraval,20.9,70.3667,298.3,68,0,5.01,IN,1712542267
349,ghadamis,30.1337,9.5007,294.7,9,5,4.13,LY,1712541894
350,corfu,39.62,19.9197,291.03,88,20,1.03,GR,1712542267
351,port antonio,18.18,-76.4612,298.12,87,10,2.48,JM,1712542267
352,vernon,50.2581,-119.2691,286.35,34,97,2.68,CA,1712542066
353,calabozo,8.9242,-67.4293,307.76,29,99,2.97,VE,1712542268
354,galle,6.0367,80.217,300.18,83,100,1.54,LK,1712542094
355,revda,56.801,59.9303,274.48,98,100,2.67,RU,1712542268
356,berezovyy,51.6667,135.7,273.18,55,100,2.28,RU,1712542011
357,burutu,5.3509,5.5076,300.64,86,100,2.38,NG,1712542268
358,wanning,18.8003,110.3967,302.42,67,17,4.65,CN,1712542268
359,coahuayana de hidalgo,18.7,-103.6583,293.99,90,6,0.31,MX,1712541602
360,magomeni,-6.8,39.25,297.2,95,100,3.03,TZ,1712542269
361,okha,53.5739,142.9478,271.62,92,90,10.28,RU,1712541972
362,codrington,-38.2667,141.9667,290.35,63,100,7.65,AU,1712541897
363,isafjordur,66.0755,-23.124,268.33,87,95,11.74,IS,1712542078
364,hailar,49.2,119.7,265.22,71,0,2.55,CN,1712542054
365,tobruk,32.0836,23.9764,290.56,81,40,8.86,LY,1712542048
366,palmer,42.1584,-72.3287,278.8,77,0,0.0,US,1712542230
367,krylovskaya,46.3194,39.9711,283.34,60,3,3.65,RU,1712542270
368,pirot,43.1531,22.5861,282.81,72,0,1.52,RS,1712542270
369,ariquemes,-9.9133,-63.0408,296.12,99,71,1.11,BR,1712542210
370,ceerigaabo,10.6162,47.368,290.96,65,28,1.52,SO,1712542212
371,ventspils,57.3894,21.5606,279.11,93,0,1.54,LV,1712542271
372,tawau,4.2498,117.8871,301.04,78,99,0.27,MY,1712542271
373,fada,9.5667,8.3,297.71,62,89,0.42,NG,1712542271
374,rio preto da eva,-2.6994,-59.6997,296.43,97,93,0.52,BR,1712542271
375,huarmey,-10.0681,-78.1522,296.16,82,91,3.06,PE,1712542271
376,haiku-pauwela,20.9219,-156.3051,298.16,67,40,10.8,US,1712542272
377,dunedin,-45.8742,170.5036,289.71,72,99,1.79,NZ,1712542035
378,nili,33.7218,66.1302,280.6,39,7,2.9,AF,1712542272
379,smithers,54.7804,-127.1743,279.33,56,75,4.63,CA,1712541620
380,khash,28.2211,61.2158,290.46,28,88,1.43,IR,1712542259
381,port lincoln,-34.7333,135.8667,291.62,61,68,7.31,AU,1712542009
382,iskateley,67.6803,53.1512,261.49,90,79,4.92,RU,1712542124
383,tual,-5.6667,132.75,301.78,77,100,3.77,ID,1712542220
384,hassi messaoud,31.6804,6.0729,297.31,15,99,5.94,DZ,1712542273
385,pangai,-19.8,-174.35,299.74,76,60,11.06,TO,1712542273
386,villa gesell,-37.2639,-56.973,289.67,90,0,6.12,AR,1712542219
387,kristiansund,63.1115,7.732,279.51,75,40,3.09,NO,1712542273
388,onega,63.9061,38.1404,273.32,100,100,1.87,RU,1712542274
389,kani keli,-12.9536,45.1033,300.74,73,42,3.04,YT,1712542274
390,yanchep,-31.55,115.6833,298.22,47,0,6.31,AU,1712542274
391,jalqani,12.4486,34.2186,301.98,29,46,2.79,SD,1712542274
392,brezina,33.0989,1.2608,292.0,21,100,5.0,DZ,1712542274
393,williams lake,52.1415,-122.1445,281.51,48,100,3.22,CA,1712542049
394,santa rosalia,27.3167,-112.2833,288.39,47,8,0.99,MX,1712542275
395,ruteng,-8.6136,120.4721,298.55,65,100,0.58,ID,1712542275
396,la villa del rosario,10.3258,-72.3134,302.8,58,67,5.75,VE,1712542275
397,banda aceh,5.5577,95.3222,302.2,72,66,4.01,ID,1712542276
398,duartina,-22.4144,-49.4039,298.73,73,100,0.67,BR,1712542276
399,miri,4.4148,114.0089,302.66,72,69,2.27,MY,1712542276
400,talnakh,69.4865,88.3972,265.49,92,100,9.39,RU,1712542276
401,jiuquan,39.7432,98.5174,283.68,25,0,1.47,CN,1712542277
402,rio grande,-32.035,-52.0986,293.12,91,66,1.97,BR,1712541889
403,ulladulla,-35.35,150.4667,296.91,72,39,4.02,AU,1712542229
404,macusani,-14.0833,-70.4333,275.42,98,98,1.57,PE,1712542277
405,naze,28.3667,129.4833,293.06,93,100,3.15,JP,1712542261
406,atafu village,-8.5421,-172.5159,302.87,73,41,3.62,TK,1712542277
407,general conesa,-40.1,-64.4333,293.78,33,100,4.15,AR,1712542031
408,wenshui,28.4506,106.5267,286.13,86,100,0.9,CN,1712542278
409,fruitland,38.3221,-75.6202,282.09,73,0,1.54,US,1712542278
410,shenkursk,62.1091,42.896,274.08,98,100,5.51,RU,1712542278
411,broken hill,-31.95,141.4333,292.15,43,11,3.09,AU,1712542262
412,yaren,-0.5472,166.916,301.17,81,99,5.39,NR,1712542279
413,qionghai,19.2425,110.4642,304.58,55,52,4.36,CN,1712542279
414,fortuna,40.5982,-124.1573,284.63,75,83,3.13,US,1712541985
415,belidzhi,41.8918,48.4125,282.89,81,97,0.72,RU,1712542279
416,sanya,18.2431,109.505,302.44,64,98,3.71,CN,1712542279
417,odense,55.3959,10.3883,284.16,69,100,3.31,DK,1712542138
418,qurayyat,31.3318,37.3428,285.25,62,0,0.0,SA,1712542280
419,chimoio,-19.1164,33.4833,292.29,98,89,2.45,MZ,1712542280
420,oamaru,-45.0784,170.9801,291.69,65,97,5.48,NZ,1712542025
421,ravar,31.2656,56.8055,295.17,18,100,6.08,IR,1712542280
422,ha'il,27.5219,41.6907,288.16,55,0,2.06,SA,1712542252
423,yakeshi,49.2833,120.7333,264.33,75,0,3.95,CN,1712542281
424,duba,27.3513,35.6901,294.46,45,0,2.88,SA,1712542198
425,freetown,8.484,-13.2299,298.44,85,64,2.18,SL,1712542281
426,livingston,55.9029,-3.5226,280.49,73,0,7.2,GB,1712542281
427,bubaque,11.2833,-15.8333,298.2,70,2,6.48,GW,1712542012
428,ketchikan,55.3422,-131.6461,279.45,81,100,3.6,US,1712542015
429,yanam,16.7333,82.2167,302.69,69,6,2.98,IN,1712542282
430,yeed,4.55,43.0333,299.38,77,27,4.65,SO,1712542282
431,tank,32.2217,70.3793,297.66,22,0,1.85,PK,1712542282
432,yuzhno-kurilsk,44.0306,145.8556,279.47,97,100,3.82,RU,1712542146
433,kivioli,59.3531,26.9711,278.89,92,0,4.53,EE,1712542283
434,vila franca do campo,37.7167,-25.4333,288.38,95,92,2.66,PT,1712542041
435,cidreira,-30.1811,-50.2056,293.47,94,100,2.56,BR,1712542283
436,santa luzia,-19.7697,-43.8514,295.65,96,58,1.89,BR,1712542004
437,alma,48.5501,-71.6491,279.22,81,1,1.88,CA,1712541668
438,siluko,6.5386,5.1609,298.6,94,100,0.91,NG,1712542283
439,kikwit,-5.041,18.8162,294.79,96,100,0.26,CD,1712542284
440,essaouira,31.5125,-9.77,289.63,86,0,8.51,MA,1712542284
441,sarai sidhu,30.5949,71.9698,296.66,20,0,2.87,PK,1712542284
442,ta`u,-14.2336,-169.5144,302.75,76,52,5.07,AS,1712541747
443,ola,59.5833,151.2833,270.45,83,100,12.14,RU,1712542285
444,morant bay,17.8815,-76.4093,298.84,88,3,3.92,JM,1712542285
445,fort mcmurray,56.7268,-111.381,281.32,54,75,2.04,CA,1712542285
446,kirkel,49.2833,7.2333,291.06,58,0,3.6,DE,1712542285
447,iranshahr,27.2025,60.6848,296.7,22,10,1.76,IR,1712542286
448,kuanda,56.3161,116.0806,264.75,67,15,0.44,RU,1712542286
449,kuraymah,18.55,31.85,293.96,12,10,4.3,SD,1712542286
450,kruisfontein,-34.0033,24.7314,290.86,87,100,2.96,ZA,1712542286
451,taltal,-25.4,-70.4833,291.14,81,30,1.56,CL,1712542039
452,upper sandusky,40.8273,-83.2813,285.64,60,69,6.23,US,1712542287
453,zapolyarnyy,69.4154,30.8136,267.75,91,100,7.51,RU,1712542206
454,callao,-12.0667,-77.15,297.99,78,0,5.66,PE,1712542287
455,dakhla,23.6848,-15.958,290.63,86,0,11.3,EH,1712541999
456,bad birnbach,48.4449,13.091,289.87,100,100,2.16,DE,1712542287
457,mariental,-24.6333,17.9667,285.48,51,0,2.77,NA,1712542288
458,shingu,33.7333,135.9833,290.33,91,100,3.05,JP,1712542222
459,nuevitas,21.5453,-77.2644,296.82,71,4,4.3,CU,1712542288
460,mbabane,-26.3167,31.1333,286.33,98,100,0.78,SZ,1712542288
461,sairang,23.8,92.6667,299.48,69,20,2.06,IN,1712542288
462,brisas de zicatela,15.8369,-97.0419,300.44,89,20,2.57,MX,1712541889
463,orsa,54.5153,30.4053,281.29,90,100,4.56,BY,1712542289
464,san antonio de pale,-1.4014,5.6325,301.45,79,98,4.56,GQ,1712541694
465,roma,43.2128,-75.4557,280.22,59,0,0.45,US,1712542289
466,happy valley-goose bay,53.3168,-60.3315,274.32,44,20,1.54,CA,1712541891
467,bernardo de irigoyen,-26.2552,-53.6458,290.82,98,100,1.01,AR,1712541962
468,elkins,38.9259,-79.8467,282.38,82,0,0.0,US,1712542290
469,statesville,35.7826,-80.8873,286.72,56,0,0.0,US,1712542290
470,otse,-25.0167,25.7333,289.06,86,100,7.11,BW,1712542290
471,vakarai,55.6035,23.8213,282.44,86,97,3.0,LT,1712542290
472,mata-utu,-13.2816,-176.1745,302.76,73,86,2.53,WF,1712542078
473,goure,13.9835,10.2704,299.93,11,25,4.57,NE,1712542033
474,malanje,-9.5402,16.341,291.72,97,100,0.75,AO,1712542291
475,n'zeto,-7.2312,12.8666,299.29,88,100,1.83,AO,1712542291
476,hadibu,12.65,54.0333,299.29,77,13,2.85,YE,1712542235
477,krakow,50.0833,19.9167,289.03,80,0,1.54,PL,1712542291
478,east ballina,-28.8667,153.5833,301.37,44,20,1.75,AU,1712542292
479,puga,21.5833,-104.8167,296.19,64,20,5.14,MX,1712542292
480,timaru,-44.4,171.25,289.3,79,2,1.79,NZ,1712542068
481,boende,-0.2167,20.8667,295.19,89,99,0.76,CD,1712542292
482,vyaz'ma,55.2104,34.2951,280.61,90,100,4.26,RU,1712542292
483,mangai,-4.05,19.5333,294.67,98,100,0.59,CD,1712542292
484,al fulah,11.7329,28.3579,297.94,14,69,3.69,SD,1712542293
485,selfoss,63.9331,-20.9971,272.51,50,97,10.06,IS,1712542293
486,sona,45.4388,10.8255,288.89,94,0,1.54,IT,1712542147
487,sarangani,5.4033,125.4636,300.44,76,100,9.12,PH,1712542293
488,guano,-1.5833,-78.6333,284.38,90,81,2.04,EC,1712542293
489,rasra,25.85,83.85,303.31,14,4,2.65,IN,1712542120
490,kayes,14.0,-11.0,305.36,14,1,2.8,ML,1712542294
491,el calafate,-50.3408,-72.2768,277.32,94,43,4.42,AR,1712541690
492,broome,42.2506,-75.833,279.5,71,0,0.45,US,1712542294
493,mondariz,42.2311,-8.4584,284.92,100,75,7.2,ES,1712542294
494,alaghsas,17.0187,8.0168,299.2,13,48,2.39,NE,1712542222
495,lospalos,-8.5186,127.0025,301.44,73,100,1.58,TL,1712542295
496,mana,5.6592,-53.7767,299.15,84,99,2.82,GF,1712542295
497,grand falls-windsor,48.9332,-55.6649,272.87,78,62,3.77,CA,1712541885
498,salinopolis,-0.6136,-47.3561,299.31,86,100,4.16,BR,1712542056
499,cranfield,52.0687,-0.6088,283.38,85,100,1.34,GB,1712542049
500,rio brilhante,-21.8019,-54.5464,297.01,89,100,2.08,BR,1712541782
501,leeton,-34.5667,146.4,294.2,61,100,2.92,AU,1712542295
502,samarinda,-0.5,117.15,302.61,71,100,2.12,ID,1712542296
503,farah,32.5,62.5,293.31,21,88,1.63,AF,1712542202
504,camana,-16.6228,-72.7111,294.71,86,99,2.28,PE,1712542296
505,hirara,24.8,125.2833,296.3,100,75,3.6,JP,1712542032
506,isangel,-19.55,169.2667,302.21,65,75,1.03,VU,1712542068
507,pitimbu,-7.4706,-34.8086,300.48,81,87,4.33,BR,1712542296
508,pisco,-13.7,-76.2167,295.18,83,0,2.06,PE,1712542227
509,henderson,36.0397,-114.9819,292.34,18,75,5.14,US,1712542171
510,gadzhiyevo,69.2551,33.3362,267.55,86,100,6.91,RU,1712542297
511,olmos,-5.9847,-79.7453,296.98,66,83,1.97,PE,1712542297
512,barah,13.7,30.3667,298.16,13,100,5.51,SD,1712542220
513,bandar-e lengeh,26.5579,54.8807,299.32,33,77,2.06,IR,1712542297
514,rabo de peixe,37.8,-25.5833,287.88,88,75,5.14,PT,1712542298
515,magdagachi,53.45,125.8,269.14,48,1,3.36,RU,1712542298
516,zemio,5.0314,25.1361,293.85,97,100,1.35,CF,1712542298
517,kenai,60.5544,-151.2583,278.2,56,0,4.12,US,1712542027
518,anna regina,7.2644,-58.5077,299.48,79,98,3.7,GY,1712542298
519,el charco,2.4769,-78.1105,298.07,95,88,1.7,CO,1712542003
520,coquimbo,-29.9533,-71.3436,289.47,82,1,1.45,CL,1712542109
521,minas de marcona,-15.2119,-75.1103,290.63,80,99,4.05,PE,1712542043
522,atakpame,7.5333,1.1333,297.64,87,30,2.3,TG,1712542299
523,nelson bay,-32.7167,152.15,298.76,61,72,1.34,AU,1712542299
524,huasahuasi,-11.3167,-75.6167,280.06,92,100,0.73,PE,1712542299
525,lahti,59.9911,30.1597,283.25,87,0,4.55,RU,1712542299
526,gamay,12.3854,125.2979,300.83,81,58,3.13,PH,1712542300
527,portland,45.5234,-122.6762,285.16,81,75,2.06,US,1712541815
528,bereket,39.2446,55.5154,289.44,58,100,1.36,TM,1712542300
529,al hazm,16.1641,44.7769,300.54,49,81,4.05,YE,1712542010
530,buala,-8.145,159.5921,302.89,70,88,1.31,SB,1712542300
531,lichuan,30.3,108.85,285.7,81,98,1.19,CN,1712542300
532,cururupu,-1.8283,-44.8683,296.05,100,100,0.31,BR,1712542036
533,yuksekova,37.5736,44.2872,275.01,93,75,0.0,TR,1712542301
534,swakopmund,-22.6833,14.5333,285.92,89,0,3.4,NA,1712542301
535,rakops,-21.0167,24.3333,293.94,87,99,6.58,BW,1712542301
536,samsun,41.25,36.3333,284.57,71,75,2.57,TR,1712542263
537,ambalangoda,6.2355,80.0538,300.6,82,100,2.07,LK,1712542301
538,watsa,3.0372,29.5355,291.57,100,100,1.06,CD,1712542301
539,london,51.5085,-0.1257,284.01,86,85,3.6,GB,1712541835
540,cambuga,13.6167,122.45,304.12,47,94,1.95,PH,1712542302
541,new ulm,44.3125,-94.4605,280.61,94,100,5.66,US,1712542302
542,vermillion,42.7794,-96.9292,281.37,87,100,4.87,US,1712542302
543,mali,12.079,-12.2982,296.52,24,53,1.89,GN,1712542302
544,kamaishi,39.2667,141.8833,286.69,95,100,2.85,JP,1712542302
545,bure,10.7,37.0667,293.09,50,100,2.15,ET,1712542303
546,walvis bay,-22.9575,14.5053,285.98,78,0,4.43,NA,1712542303
547,ferreiras,37.1293,-8.2376,286.08,89,51,2.45,PT,1712542303
548,koszeg,47.3892,16.541,288.34,78,100,2.63,HU,1712542303
549,guatrache,-37.6678,-63.5302,292.6,63,83,5.2,AR,1712542304
550,bathsheba,13.2167,-59.5167,299.83,70,79,5.13,BB,1712542304
551,al bayda',32.7627,21.7551,284.34,93,59,4.66,LY,1712542304
552,san rafael del yuma,18.4299,-68.6739,299.91,92,0,1.51,DO,1712542304
553,kayangel,8.0823,134.7173,301.37,76,81,6.71,PW,1712542125
554,paita,-5.0892,-81.1144,295.62,80,19,4.61,PE,1712542304
555,usogorsk,63.4106,48.6872,264.63,95,100,2.64,RU,1712542305
556,tsiombe,-25.3,45.4833,295.01,87,100,6.01,MG,1712542132
557,linares,-35.85,-71.6,287.21,53,13,1.54,CL,1712542123
558,wewak,-3.5534,143.6268,301.55,77,100,2.41,PG,1712542305
559,nanao,37.05,136.9667,295.47,59,100,1.68,JP,1712542305
560,ponoka,52.6768,-113.5815,282.53,50,98,1.78,CA,1712542207
561,ormara,25.2088,64.6357,299.16,63,0,4.13,PK,1712542306
562,vryburg,-26.9566,24.7284,290.65,86,95,10.76,ZA,1712542306
563,laguna,38.421,-121.4238,291.14,33,0,3.6,US,1712541892
564,yanbu,24.0891,38.0637,294.17,49,0,2.06,SA,1712542306
565,karabash,55.4808,60.2157,274.48,96,100,1.8,RU,1712542306
566,saint-francois,46.4154,3.9054,284.84,88,0,1.54,FR,1712542307
567,hami,42.8,93.45,287.24,26,100,1.39,CN,1712542307
568,tomatlan,19.9333,-105.25,294.74,68,9,1.6,MX,1712542307
569,yomju-up,39.8933,124.5981,289.58,41,100,4.82,KP,1712542307
570,tavda,58.0425,65.2726,274.09,96,100,3.58,RU,1712542307
571,belmonte,-15.8631,-38.8828,298.04,74,1,3.44,BR,1712542308
572,erenhot,43.6475,111.9767,282.67,39,37,6.7,CN,1712542308
573,devonport,-41.1667,146.35,291.53,68,68,1.79,AU,1712542141
574,khorixas,-20.3667,14.9667,288.77,43,0,1.31,NA,1712542308
575,kill devil hills,36.0307,-75.676,283.15,76,0,0.0,US,1712541647
576,los llanos de aridane,28.6585,-17.9182,289.01,84,0,2.68,ES,1712542308
577,marsabit,2.3284,37.9899,292.93,81,99,2.89,KE,1712542309
578,kindu,-2.95,25.95,293.8,99,100,0.6,CD,1712542225
579,ardakan,32.31,54.0175,292.79,31,1,2.46,IR,1712542309
580,nushki,29.5542,66.0215,294.37,16,58,1.5,PK,1712542309
581,booue,-0.0921,11.9385,296.66,99,100,0.56,GA,1712542309
582,remire-montjoly,4.9167,-52.2667,297.17,100,40,1.03,GF,1712542126
583,sur,22.5667,59.5289,299.42,47,7,3.61,OM,1712541892
584,songyang,34.4553,113.0281,292.87,43,0,0.45,CN,1712542310
585,zilupe,56.3862,28.1217,283.75,90,100,2.74,LV,1712542310
