City_ID,City,Lat,Lng,Max Temp,Humidity,Cloudiness,Wind Speed,Country,Date
0,punta arenas,-53.15,-70.9167,1.2099999999999795,86,40,14.92,CL,1712547117
1,petropavlovsk-kamchatsky,53.0452,158.6483,5.480000000000018,82,40,5.0,RU,1712547347
2,grytviken,-54.2811,-36.5092,2.180000000000007,71,2,2.53,GS,1712547310
3,udachny,66.4167,112.4,-12.379999999999995,67,9,2.25,RU,1712547171
4,port-aux-francais,-49.35,70.2167,5.529999999999973,62,75,8.02,TF,1712547336
5,puerto natales,-51.7236,-72.4875,2.839999999999975,75,100,2.53,CL,1712547309
6,verdal,63.7933,11.4817,2.170000000000016,87,75,1.61,NO,1712547537
7,gadzhiyevo,69.2551,33.3362,-5.259999999999991,86,100,6.43,RU,1712547334
8,hawaiian paradise park,19.5933,-154.9731,22.94999999999999,94,100,3.09,US,1712547258
9,georgetown,5.4112,100.3354,34.110000000000014,61,20,3.09,MY,1712547311
10,waitangi,-43.9535,-176.5597,13.379999999999995,80,100,0.89,NZ,1712547310
11,bethel,41.3712,-73.414,6.319999999999993,68,0,0.45,US,1712547337
12,college,64.8569,-147.8028,3.329999999999984,64,100,2.57,US,1712547305
13,ilulissat,69.2167,-51.1,-9.839999999999975,85,100,1.54,GL,1712547157
14,adamstown,-25.066,-130.1015,24.04000000000002,87,77,4.15,PN,1712547312
15,kavaratti,10.5669,72.642,29.5,70,70,2.65,IN,1712547313
16,yellowknife,62.456,-114.3525,3.160000000000025,89,20,4.63,CA,1712547314
17,isetskoye,56.4858,65.3226,2.4399999999999977,92,100,2.29,RU,1712547538
18,thompson,55.7435,-97.8558,2.240000000000009,55,40,0.0,CA,1712547167
19,longyearbyen,78.2186,15.6401,-17.939999999999998,78,40,4.63,SJ,1712547161
20,shanhaiguan,39.9988,119.7564,15.389999999999986,16,5,8.59,CN,1712547539
21,ust-nera,64.5667,143.2,-5.639999999999986,84,91,2.04,RU,1712547352
22,hadibu,12.65,54.0333,27.379999999999995,69,13,2.64,YE,1712547181
23,rio grande,-32.035,-52.0986,20.120000000000005,93,56,3.25,BR,1712547413
24,grand falls-windsor,48.9332,-55.6649,-1.240000000000009,85,59,0.89,CA,1712547540
25,rio gallegos,-51.6226,-69.2181,4.180000000000007,70,0,7.72,AR,1712547295
26,filadelfia,39.9523,-75.1638,8.79000000000002,74,0,2.06,US,1712547505
27,vorgashor,67.5833,63.95,-12.180000000000007,96,99,6.2,RU,1712547153
28,papatowai,-46.5619,169.4708,13.980000000000018,74,100,2.09,NZ,1712547334
29,airdrie,55.866,-3.9803,7.420000000000016,85,40,5.46,GB,1712547540
30,kariba,-16.5167,28.8,22.24000000000001,71,97,2.05,ZW,1712547540
31,sao joao da barra,-21.6403,-41.0511,23.649999999999977,81,0,2.58,BR,1712547496
32,bilibino,68.0546,166.4372,-10.839999999999975,83,88,1.39,RU,1712547176
33,kingston,17.997,-76.7936,28.680000000000007,82,20,2.06,JM,1712547165
34,springbok,-29.6643,17.8865,10.579999999999984,87,99,1.8,ZA,1712547393
35,manaure,11.7751,-72.4445,27.810000000000002,69,100,4.23,CO,1712547541
36,jintur,19.6167,76.7,32.079999999999984,31,56,3.51,IN,1712547541
37,san luis,-33.295,-66.3356,19.089999999999975,60,1,5.4,AR,1712547300
38,pandan,14.0453,124.1694,29.870000000000005,68,51,4.66,PH,1712547542
39,iskateley,67.6803,53.1512,-11.509999999999991,90,55,4.92,RU,1712547197
40,iqaluit,63.7506,-68.5145,-16.0,78,0,6.69,CA,1712547335
41,albany,42.6001,-73.9662,4.920000000000016,68,0,1.87,US,1712547115
42,klyuchi,52.2667,79.1667,8.0,71,100,3.5,RU,1712547157
43,port elizabeth,-33.918,25.5701,17.55000000000001,91,0,7.2,ZA,1712547326
44,wurno,13.2878,5.4233,28.79000000000002,19,7,2.24,NG,1712547543
45,whitehorse,60.7161,-135.0538,2.579999999999984,51,75,4.63,CA,1712547055
46,alice springs,-23.7,133.8833,26.899999999999977,19,23,6.69,AU,1712547335
47,atkinson,42.8384,-71.147,3.8899999999999864,81,0,1.54,US,1712547543
48,badger,64.8,-147.5333,3.2900000000000205,66,0,2.57,US,1712547177
49,invercargill,-46.4,168.35,19.05000000000001,71,87,2.68,NZ,1712547331
50,lompoc,34.6391,-120.4579,12.25,82,0,9.26,US,1712547381
51,quelimane,-17.8786,36.8883,25.120000000000005,94,20,1.87,MZ,1712547544
52,wotho,10.1657,166.0102,27.600000000000023,81,99,8.86,MH,1712547544
53,tanjung pinang,0.9167,104.45,29.170000000000016,66,74,0.45,ID,1712547544
54,chibougamau,49.9168,-74.3659,-2.0600000000000023,64,0,0.0,CA,1712547250
55,palangkaraya,-2.2,113.8333,34.64999999999998,50,86,1.68,ID,1712547538
56,bredasdorp,-34.5322,20.0403,18.389999999999986,92,100,8.94,ZA,1712547256
57,qaqortoq,60.7167,-46.0333,-5.110000000000014,94,100,0.68,GL,1712547168
58,blythe,33.6103,-114.5964,19.399999999999977,20,0,2.06,US,1712547388
59,bukittinggi,-0.3091,100.3706,22.170000000000016,95,100,0.57,ID,1712547545
60,itoman,26.1247,127.6694,25.579999999999984,92,75,5.14,JP,1712547346
61,chiredzi,-21.05,31.6667,20.339999999999975,94,100,4.04,ZW,1712547546
62,codrington,-38.2667,141.9667,14.699999999999989,74,100,8.13,AU,1712547357
63,talnakh,69.4865,88.3972,-7.509999999999991,90,100,10.12,RU,1712547368
64,zvishavane,-20.3267,30.0665,18.660000000000025,97,100,3.27,ZW,1712547546
65,sao felix do xingu,-6.6447,-51.995,23.04000000000002,98,95,0.19,BR,1712547512
66,peace river,56.2501,-117.286,6.319999999999993,36,75,4.12,CA,1712547269
67,edinburgh of the seven seas,-37.0676,-12.3116,18.600000000000023,95,100,7.26,SH,1712547153
68,ushuaia,-54.8,-68.3,1.9599999999999795,93,100,1.03,AR,1712547286
69,eirunepe,-6.6603,-69.8736,23.0,99,99,0.38,BR,1712547547
70,kodiak,57.79,-152.4072,3.8799999999999955,81,40,3.09,US,1712547152
71,cromer,52.9312,1.2989,9.629999999999995,88,98,5.54,GB,1712547547
72,wailua homesteads,22.0669,-159.378,26.389999999999986,78,100,7.2,US,1712547156
73,anadyr,64.75,177.4833,-11.569999999999993,78,40,6.0,RU,1712547367
74,sillamae,59.3997,27.7547,5.149999999999977,93,20,5.39,EE,1712547548
75,puerto ayora,-0.7393,-90.3518,24.339999999999975,98,76,0.88,EC,1712547163
76,middelburg,-25.7751,29.4648,14.509999999999991,83,100,4.65,ZA,1712547548
77,blackmans bay,-43.0167,147.3167,17.779999999999973,51,97,2.24,AU,1712547166
78,newport,51.5877,-2.9984,12.199999999999989,93,100,5.16,GB,1712547548
79,buulobarde,3.8538,45.5674,27.839999999999975,76,89,3.47,SO,1712547395
80,gagliano del capo,39.8442,18.3695,14.829999999999984,82,2,3.6,IT,1712547549
81,naze,28.3667,129.4833,21.660000000000025,95,100,2.78,JP,1712547343
82,willowmore,-33.2926,23.4895,14.740000000000009,92,100,5.18,ZA,1712547549
83,la passe,45.5549,-0.8967,10.720000000000027,95,100,5.53,FR,1712547193
84,lihue,21.9789,-159.3672,26.730000000000018,72,100,7.2,US,1712547351
85,tomatlan,19.9333,-105.25,19.44999999999999,80,32,1.07,MX,1712547550
86,rach gia,10.0167,105.0833,31.75,54,10,1.1,VN,1712547550
87,rudsar,37.1376,50.288,14.139999999999986,81,100,2.95,IR,1712547550
88,lorengau,-2.0226,147.2712,29.060000000000002,73,100,2.94,PG,1712547361
89,lethem,3.3803,-59.7968,29.180000000000007,53,76,7.43,GY,1712547532
90,labytnangi,66.6572,66.4183,-11.310000000000002,94,32,4.11,RU,1712547550
91,bushehr,28.9684,50.8385,22.19999999999999,46,40,0.0,IR,1712547551
92,touros,-5.1989,-35.4608,25.629999999999995,91,43,3.58,BR,1712547185
93,alofi,-19.0595,-169.9187,27.089999999999975,83,75,6.17,NU,1712547358
94,isafjordur,66.0755,-23.124,-4.829999999999984,85,96,10.98,IS,1712547335
95,la'ie,21.6477,-157.9253,27.129999999999995,73,10,4.02,US,1712547339
96,barakani,-12.1356,44.4317,28.480000000000018,80,100,3.59,KM,1712547551
97,dunedin,-45.8742,170.5036,16.149999999999977,73,100,1.79,NZ,1712547385
98,dowagiac,41.9842,-86.1086,9.870000000000005,82,70,6.5,US,1712547350
99,athlone,53.4333,-7.95,5.269999999999982,90,100,2.18,IE,1712547552
100,kozhikode,11.25,75.7667,30.80000000000001,61,74,1.3,IN,1712547552
101,saipan,15.1355,145.701,31.54000000000002,58,40,8.75,MP,1712547340
102,gornozavodsk,58.3758,58.3211,-0.9599999999999795,87,100,3.45,RU,1712547553
103,suomussalmi,64.8869,28.9078,-0.060000000000002274,100,100,0.62,FI,1712547553
104,chimoio,-19.1164,33.4833,19.279999999999973,98,94,2.74,MZ,1712547553
105,hermanus,-34.4187,19.2345,17.25999999999999,91,100,8.55,ZA,1712547324
106,khromtau,50.2503,58.4347,5.6299999999999955,96,100,6.34,KZ,1712547553
107,olonkinbyen,70.9221,-8.7187,-3.839999999999975,67,100,9.21,SJ,1712547319
108,quellon,-43.1167,-73.6167,8.670000000000016,92,100,2.67,CL,1712547554
109,zhanibek,49.4167,46.85,10.329999999999984,67,26,0.93,KZ,1712547554
110,west island,-12.1568,96.8225,29.139999999999986,79,40,7.72,CC,1712547322
111,acarau,-2.8856,-40.12,24.839999999999975,93,100,2.64,BR,1712547358
112,nemuro,43.3236,145.575,5.019999999999982,99,100,5.85,JP,1712547168
113,axim,4.8699,-2.2405,27.620000000000005,86,66,2.84,GH,1712547554
114,geraldton,-28.7667,114.6,34.379999999999995,14,94,10.8,AU,1712547290
115,ta`u,-14.2336,-169.5144,29.649999999999977,76,63,4.98,AS,1712547508
116,st. john's,47.5649,-52.7093,1.8000000000000114,94,100,8.94,CA,1712547215
117,praia da vitoria,38.7333,-27.0667,15.009999999999991,94,75,2.03,PT,1712547201
118,tofol,5.3248,163.0078,29.029999999999973,84,100,5.66,FM,1712547508
119,gaalkacyo,6.7697,47.4308,26.610000000000014,78,43,4.11,SO,1712547555
120,lauro de freitas,-12.8944,-38.3272,24.160000000000025,94,75,4.63,BR,1712547556
121,sos'va,59.1766,61.8558,0.18000000000000682,98,82,4.92,RU,1712547512
122,ibirama,-27.0569,-49.5178,22.55000000000001,98,100,1.13,BR,1712547454
123,yemetsk,63.4721,41.7941,0.5600000000000023,100,100,2.1,RU,1712547556
124,howrah,22.5892,88.3103,28.149999999999977,57,75,2.57,IN,1712547506
125,dukhan,25.4297,50.7858,25.139999999999986,43,83,3.59,QA,1712547556
126,stanley,54.868,-1.6985,7.160000000000025,82,0,5.14,GB,1712547259
127,roma,43.2128,-75.4557,5.2099999999999795,66,0,0.45,US,1712547260
128,hithadhoo,-0.6,73.0833,29.019999999999982,72,97,1.2,MV,1712547363
129,constantia,44.1833,28.65,8.529999999999973,87,1,3.59,RO,1712547245
130,kindu,-2.95,25.95,20.670000000000016,99,100,1.02,CD,1712547557
131,ribeira grande,38.5167,-28.7,15.019999999999982,87,90,2.24,PT,1712547335
132,gua musang,4.8823,101.9644,34.44,47,68,1.3,MY,1712547557
133,xinyuan,37.3,99.0,5.0400000000000205,12,100,1.66,CN,1712547558
134,san agustin de valle fertil,-30.6335,-67.4682,17.399999999999977,78,0,1.09,AR,1712547308
135,treinta y tres,-33.2333,-54.3833,17.079999999999984,89,70,3.23,UY,1712547460
136,kabwe,-14.4469,28.4464,18.04000000000002,95,100,2.08,ZM,1712547558
137,khandyga,62.6667,135.6,-5.110000000000014,82,100,2.16,RU,1712547337
138,karratha,-20.7377,116.8463,34.870000000000005,16,100,9.84,AU,1712547528
139,qui nhon,13.7667,109.2333,30.139999999999986,61,52,5.05,VN,1712547559
140,cadale,2.7603,46.3222,29.220000000000027,75,100,3.7,SO,1712547546
141,atafu village,-8.5421,-172.5159,29.680000000000007,74,47,3.41,TK,1712547168
142,bullsbrook,-31.6667,116.0,27.120000000000005,40,0,6.69,AU,1712547293
143,izhmorskiy,56.194,86.6414,-1.1999999999999886,58,44,5.22,RU,1712547559
144,ghardaia,32.4909,3.6735,19.79000000000002,21,0,2.57,DZ,1712547559
145,hamilton,39.1834,-84.5333,16.839999999999975,35,100,6.69,US,1712547099
146,ripky,51.801,31.0838,9.160000000000025,86,100,2.6,UA,1712547560
147,freeport,40.6576,-73.5832,9.129999999999995,87,0,2.06,US,1712547363
148,lebu,-37.6167,-73.65,13.079999999999984,98,100,1.85,CL,1712547177
149,kirensk,57.7853,108.1119,-1.5400000000000205,89,100,2.68,RU,1712547326
150,nadi,-17.8,177.4167,30.149999999999977,66,75,5.14,FJ,1712547560
151,gizo,-8.103,156.8419,28.930000000000007,72,100,4.36,SB,1712547561
152,callao,-12.0667,-77.15,24.439999999999998,78,0,4.63,PE,1712547514
153,cavalaire-sur-mer,43.174,6.5272,15.0,82,100,4.3,FR,1712547561
154,saldanha,-33.0117,17.9442,14.180000000000007,94,81,2.96,ZA,1712547375
155,mili,6.0815,171.735,28.139999999999986,82,99,10.24,MH,1712547373
156,el idrissia,34.4454,2.5275,17.319999999999993,27,100,8.59,DZ,1712547561
157,luanda,-8.8368,13.2343,26.149999999999977,95,40,1.54,AO,1712547344
158,fisterra,42.9049,-9.2629,12.79000000000002,85,89,9.55,ES,1712547363
159,kargasok,59.0556,80.8572,-3.759999999999991,74,88,5.36,RU,1712547562
160,luderitz,-26.6481,15.1594,15.050000000000011,84,50,3.39,NA,1712547185
161,budleigh salterton,50.6298,-3.3218,11.769999999999982,92,100,8.39,GB,1712547562
162,ontario,34.0633,-117.6509,13.75,66,40,5.81,US,1712547562
163,akureyri,65.6835,-18.0878,-0.8899999999999864,100,100,6.69,IS,1712547226
164,tokoroa,-38.2333,175.8667,16.910000000000025,63,100,1.68,NZ,1712547563
165,kayes,14.0,-11.0,30.819999999999993,15,2,3.29,ML,1712547502
166,sao vicente,-23.9631,-46.3919,26.25,26,59,1.39,BR,1712547518
167,florence,43.7667,11.25,14.45999999999998,82,0,1.03,IT,1712547312
168,fort mcmurray,56.7268,-111.381,9.920000000000016,37,0,3.09,CA,1712547328
169,katsuura,35.1333,140.3,17.5,94,100,4.27,JP,1712547310
170,susuman,62.7833,148.1667,-10.420000000000016,72,47,0.89,RU,1712547349
171,sisimiut,66.9395,-53.6735,-7.2099999999999795,89,98,4.08,GL,1712547564
172,coquimbo,-29.9533,-71.3436,15.0,88,100,2.06,CL,1712547360
173,kinkala,-4.3614,14.7644,22.629999999999995,94,100,0.96,CG,1712547564
174,hobyo,5.3505,48.5268,29.439999999999998,74,85,3.99,SO,1712547564
175,loango,-4.6719,11.8312,25.95999999999998,94,20,1.54,CG,1712547337
176,nouadhibou,20.931,-17.0347,18.139999999999986,77,0,10.29,MR,1712547394
177,konstantinovskoye,45.2992,42.6367,6.470000000000027,73,6,3.0,RU,1712547565
178,tura,25.5198,90.2201,31.79000000000002,32,100,3.13,IN,1712547314
179,sittwe,20.15,92.9,31.600000000000023,59,2,2.94,MM,1712547565
180,pingzhuang,42.0372,119.2889,8.29000000000002,20,80,5.48,CN,1712547565
181,margaret river,-33.95,115.0667,23.04000000000002,38,3,3.99,AU,1712547324
182,aykhal,66.0,111.5,-9.54000000000002,55,3,1.47,RU,1712547529
183,malango,-2.9627,119.9001,30.25,52,95,1.67,ID,1712547336
184,cabo san lucas,22.8909,-109.9124,21.680000000000007,61,0,4.63,MX,1712547334
185,sanga-sanga,5.0725,119.7853,28.379999999999995,73,95,1.82,PH,1712547566
186,dudinka,69.4058,86.1778,-7.25,92,100,10.73,RU,1712547307
187,jose pedro varela,-33.45,-54.5333,15.019999999999982,91,11,3.06,UY,1712547567
188,tiksi,71.6872,128.8694,-12.240000000000009,78,6,7.98,RU,1712547155
189,kourou,5.1552,-52.6478,24.180000000000007,87,78,1.93,GF,1712547354
190,armacao de buzios,-22.7469,-41.8817,25.180000000000007,88,8,4.81,BR,1712547567
191,selfoss,63.9331,-20.9971,-0.37999999999999545,54,97,8.34,IS,1712547567
192,san carlos de bariloche,-41.1456,-71.3082,13.009999999999991,82,75,7.2,AR,1712547568
193,port lincoln,-34.7333,135.8667,18.04000000000002,67,74,7.39,AU,1712547308
194,puerto cabezas,14.0351,-83.3888,25.769999999999982,84,3,2.73,NI,1712547568
195,sharypovo,55.5403,89.2008,-3.6000000000000227,83,80,4.02,RU,1712547568
196,kununurra,-15.7667,128.7333,32.139999999999986,33,6,3.6,AU,1712547360
197,maloyaroslavets,55.0146,36.4719,7.8799999999999955,92,100,4.08,RU,1712547568
198,sangmelima,2.9333,11.9833,20.24000000000001,98,77,0.31,CM,1712547569
199,saint-leu,-21.15,55.2833,24.629999999999995,79,58,2.37,RE,1712547569
200,faaa,-17.55,-149.6,30.120000000000005,74,75,3.58,PF,1712547569
201,aioun,16.6614,-9.6149,29.629999999999995,20,0,7.44,MR,1712547545
202,jamestown,42.097,-79.2353,8.949999999999989,47,0,5.14,US,1712547056
203,papao,-17.75,-149.55,29.95999999999998,73,100,2.6,PF,1712547543
204,lakhdaria,36.5646,3.5933,27.189999999999998,26,100,4.35,DZ,1712547570
205,sanctuary point,-35.1114,150.629,22.360000000000014,73,62,3.74,AU,1712547396
206,kalmunai,7.4167,81.8167,30.269999999999982,62,96,1.95,LK,1712547340
207,astrakhan,46.3497,48.0408,5.079999999999984,93,0,1.0,RU,1712547535
208,khorixas,-20.3667,14.9667,14.980000000000018,43,0,0.68,NA,1712547571
209,aasiaat,68.7098,-52.8699,-8.689999999999998,96,98,2.13,GL,1712547184
210,uturoa,-16.7333,-151.4333,29.639999999999986,73,100,3.39,PF,1712547196
211,sivas,39.7916,37.0019,2.5,100,75,1.54,TR,1712547342
212,kailua-kona,19.6406,-155.9956,26.129999999999995,76,75,4.12,US,1712547290
213,kermanshah,34.3142,47.065,8.649999999999977,87,20,5.14,IR,1712547571
214,chipata,-13.6333,32.65,17.269999999999982,97,56,2.07,ZM,1712547571
215,astara,38.5,48.6667,8.139999999999986,78,100,0.32,AZ,1712547572
216,dzhalagash,45.0833,64.6667,16.480000000000018,48,99,4.42,KZ,1712547381
217,cestos city,5.46,-9.5828,27.100000000000023,88,99,1.92,LR,1712547339
218,ada,43.4166,-116.1262,6.490000000000009,73,20,3.13,US,1712547572
219,tralee,52.2704,-9.7026,6.600000000000023,88,100,0.66,IE,1712547165
220,tsiombe,-25.3,45.4833,21.50999999999999,85,100,5.76,MG,1712547199
221,kaltan,53.5347,87.2457,3.5299999999999727,77,95,0.81,RU,1712547573
222,libreville,0.3925,9.4537,25.160000000000025,94,20,3.09,GA,1712547573
223,keflavik,64.0049,-22.5624,1.1000000000000227,74,75,10.29,IS,1712547160
224,trou du nord,19.6333,-72.0167,24.850000000000023,88,82,2.2,HT,1712547573
225,fort-shevchenko,44.5086,50.263,11.20999999999998,66,6,3.34,KZ,1712547574
226,karliova,39.2983,41.0142,0.7300000000000182,100,100,1.52,TR,1712547574
227,mejit,10.2753,170.8646,27.24000000000001,84,80,9.67,MH,1712547574
228,utrik,11.2278,169.8474,27.089999999999975,83,100,9.3,MH,1712547180
229,basco,20.4487,121.9702,27.560000000000002,81,18,7.6,PH,1712547542
230,vaggeryd,57.4981,14.1484,7.310000000000002,94,97,3.32,SE,1712547574
231,tolanaro,-25.0319,46.9987,23.189999999999998,88,75,6.17,MG,1712547348
232,port alfred,-33.5906,26.891,17.470000000000027,91,100,1.34,ZA,1712547354
233,kirovskiy,45.0917,133.5136,5.160000000000025,29,0,6.79,RU,1712547575
234,carnarvon,-24.8667,113.6333,31.480000000000018,32,21,2.39,AU,1712547376
235,heunghae,36.1125,129.3522,21.680000000000007,36,98,2.59,KR,1712547373
236,tingo maria,-9.2895,-76.0088,21.410000000000025,99,98,0.75,PE,1712547575
237,kulhudhuffushi,6.6221,73.07,29.24000000000001,72,87,2.76,MV,1712547575
238,fuxin,42.0156,121.6589,8.470000000000027,13,47,6.3,CN,1712547576
239,hanzhong,33.0728,107.0303,22.350000000000023,44,100,1.11,CN,1712547576
240,nago,26.5881,127.9761,25.620000000000005,91,100,3.75,JP,1712547576
241,aliveri,38.4167,24.0333,15.870000000000005,59,8,7.77,GR,1712547576
242,iquique,-20.2208,-70.1431,21.170000000000016,81,50,0.81,CL,1712547480
243,namsos,64.4662,11.4957,5.180000000000007,100,75,3.09,NO,1712547577
244,ad dilam,23.9915,47.1627,24.379999999999995,34,73,5.58,SA,1712547577
245,fort bragg,35.139,-79.006,11.930000000000007,69,0,0.0,US,1712547200
246,mount pearl,47.5166,-52.7813,1.339999999999975,94,100,8.75,CA,1712547083
247,vysokaya gora,55.9128,49.3017,1.5600000000000023,87,94,2.84,RU,1712547577
248,hammerfest,70.6634,23.6821,-3.6000000000000227,80,100,8.75,NO,1712547354
249,beykonak,36.3257,30.303,17.399999999999977,45,3,4.87,TR,1712547578
250,saint-joseph,-21.3667,55.6167,24.360000000000014,82,58,1.93,RE,1712547578
251,acapulco de juarez,16.8634,-99.8901,25.05000000000001,88,0,2.57,MX,1712547109
252,northam,51.0333,-4.2167,12.740000000000009,96,100,7.62,GB,1712547211
253,villa de reyes,21.8,-100.9333,19.829999999999984,27,25,2.57,MX,1712547578
254,machico,32.7,-16.7667,18.879999999999995,82,20,2.06,PT,1712547377
255,boa vista,2.8197,-60.6733,29.139999999999986,58,0,2.06,BR,1712547541
256,estevan,49.1334,-102.9842,7.259999999999991,65,100,3.6,CA,1712547566
257,minas de marcona,-15.2119,-75.1103,17.50999999999999,81,92,3.97,PE,1712547389
258,malvan,16.0667,73.4667,31.079999999999984,37,6,4.22,IN,1712547344
259,tambacounda,13.7539,-13.7586,28.560000000000002,24,0,4.11,SN,1712547579
260,sur,22.5667,59.5289,29.569999999999993,37,3,2.1,OM,1712547579
261,pobiedziska,52.4775,17.2877,13.990000000000009,77,100,1.34,PL,1712547580
262,chonchi,-42.6128,-73.8092,10.220000000000027,99,100,1.0,CL,1712547152
263,sakaiminato,35.55,133.2333,20.110000000000014,77,100,4.12,JP,1712547329
264,guasdualito,7.2424,-70.7324,29.129999999999995,74,40,0.0,VE,1712547580
265,moyynkum,44.2914,72.9469,17.29000000000002,41,94,2.85,KZ,1712547580
266,ilhabela,-23.7781,-45.3581,24.329999999999984,91,90,4.03,BR,1712547580
267,argo,37.6333,22.7333,14.20999999999998,62,0,7.59,GR,1712547395
268,ust-tsilma,65.441,52.1498,-11.180000000000007,97,99,0.89,RU,1712547581
269,tabou,4.423,-7.3528,27.339999999999975,83,72,1.89,CI,1712547380
270,revda,56.801,59.9303,0.9800000000000182,97,100,2.58,RU,1712547354
271,xingcheng,40.6167,120.7167,11.350000000000023,21,0,9.45,CN,1712547382
272,dorchester,33.1002,-80.3831,13.029999999999973,83,0,0.0,US,1712547581
273,san patricio,28.017,-97.5169,24.069999999999993,94,100,3.59,US,1712547362
274,curup,-3.4667,102.5333,27.660000000000025,74,87,1.16,ID,1712547582
275,nar'yan-mar,67.6713,53.087,-11.45999999999998,90,63,4.92,RU,1712547366
276,kerikeri,-35.2268,173.9474,21.769999999999982,73,41,3.6,NZ,1712547352
277,palikir - national government center,6.9248,158.1611,27.560000000000002,83,100,4.63,FM,1712547531
278,ponta delgada,37.7333,-25.6667,14.550000000000011,94,40,3.6,PT,1712547354
279,ancud,-41.8697,-73.8203,13.310000000000002,98,100,5.54,CL,1712547317
280,port mathurin,-19.6833,63.4167,27.129999999999995,81,15,4.66,MU,1712547161
281,sasvad,18.3333,74.0333,30.50999999999999,14,2,2.22,IN,1712547583
282,alta,69.9689,23.2717,-4.259999999999991,80,20,6.69,NO,1712547583
283,powell river,49.8496,-124.5361,9.699999999999989,75,100,3.9,CA,1712547583
284,sandpoint,48.2766,-116.5533,6.230000000000018,81,100,0.0,US,1712547583
285,huilong,31.8111,121.655,10.660000000000025,82,100,5.23,CN,1712547325
286,avarua,-21.2078,-159.775,26.180000000000007,94,75,2.06,CK,1712547160
287,stepnogorsk,52.3544,71.8869,6.399999999999977,85,95,2.9,KZ,1712547584
288,nova sintra,14.8667,-24.7167,23.420000000000016,75,0,9.6,CV,1712547386
289,fale old settlement,-9.3852,-171.2468,30.220000000000027,70,5,2.56,TK,1712547337
290,teknaf,20.8624,92.3058,32.56999999999999,57,1,4.17,BD,1712547585
291,rampur,28.8167,79.0333,24.430000000000007,8,0,3.12,IN,1712547585
292,monrovia,6.3005,-10.7969,26.019999999999982,89,96,1.43,LR,1712547585
293,kingscliff,-28.2667,153.5667,28.44999999999999,54,36,3.6,AU,1712547585
294,hengchun,22.0042,120.7439,28.410000000000025,68,5,6.67,TW,1712547585
295,bucha,50.5434,30.212,10.529999999999973,82,100,2.68,UA,1712547586
296,mantua,45.1667,10.7833,13.730000000000018,94,100,0.13,IT,1712547586
297,luorong,24.4058,109.6086,21.00999999999999,72,99,3.28,CN,1712547586
298,westport,41.1415,-73.3579,7.019999999999982,80,0,2.06,US,1712547542
299,cozumel,20.5083,-86.9458,26.019999999999982,70,43,5.54,MX,1712547586
300,sitka,57.0531,-135.33,4.089999999999975,81,100,6.17,US,1712547170
301,tsengel,49.4783,100.8894,9.870000000000005,47,99,1.31,MN,1712547587
302,salekhard,66.53,66.6019,-11.300000000000011,94,22,3.58,RU,1712547530
303,cidade velha,14.9167,-23.6167,22.410000000000025,73,20,10.29,CV,1712547491
304,olinda,-8.0089,-34.8553,29.0,74,40,4.12,BR,1712547370
305,mukalla,14.5425,49.1242,26.730000000000018,67,21,2.39,YE,1712547362
306,bereznik,62.8551,42.7072,2.2799999999999727,100,100,3.57,RU,1712547587
307,loreto,22.2667,-101.9667,16.610000000000014,27,29,1.9,MX,1712547588
308,broken hill,-31.95,141.4333,21.25,37,9,4.29,AU,1712547270
309,qarazhal,48.0078,70.7903,10.160000000000025,79,100,1.88,KZ,1712547347
310,freetown,8.484,-13.2299,25.410000000000025,85,46,2.28,SL,1712547519
311,berezovo,63.9381,65.0419,-4.850000000000023,87,18,2.25,RU,1712547588
312,nyagan,62.1406,65.3936,-1.240000000000009,77,96,3.15,RU,1712547588
313,tidjikja,18.5564,-11.4271,25.310000000000002,24,0,5.4,MR,1712547588
314,grajau,-5.8194,-46.1386,22.5,97,100,0.88,BR,1712547339
315,la ronge,55.1001,-105.2842,10.29000000000002,53,100,1.54,CA,1712547371
316,okhotsk,59.3833,143.3,-0.8100000000000023,96,100,5.63,RU,1712547371
317,sun city,33.5975,-112.2718,20.769999999999982,23,46,0.45,US,1712547437
318,huntsville,34.7304,-86.5861,21.29000000000002,35,40,3.6,US,1712547037
319,rongelap,11.1635,166.8941,27.350000000000023,81,100,9.0,MH,1712547349
320,chake chake,-5.2459,39.7666,26.69999999999999,84,97,4.92,TZ,1712547590
321,taltal,-25.4,-70.4833,17.360000000000014,84,18,0.31,CL,1712547522
322,saynshand,44.8824,110.1163,13.79000000000002,29,17,5.89,MN,1712547590
323,am timan,11.0297,20.2827,26.230000000000018,63,94,1.41,TD,1712547590
324,vertou,47.1687,-1.4693,10.699999999999989,100,100,2.06,FR,1712547590
325,katabu,-4.9333,122.5167,31.019999999999982,71,53,1.54,ID,1712547590
326,yuanlin,30.4151,112.8859,21.120000000000005,58,28,3.42,CN,1712547590
327,kalengwa,-13.4659,25.0027,17.939999999999998,99,100,1.6,ZM,1712547591
328,susangerd,31.5608,48.1831,23.889999999999986,48,0,5.15,IR,1712547591
329,mana,5.6592,-53.7767,26.160000000000025,83,90,3.56,GF,1712547359
330,nuuk,64.1835,-51.7216,-3.509999999999991,86,94,2.57,GL,1712547341
331,puerto baquerizo moreno,-0.9,-89.6,25.20999999999998,88,70,1.25,EC,1712547525
332,baruun-urt,46.6806,113.2792,7.050000000000011,32,14,2.15,MN,1712547390
333,kirov,58.5966,49.6601,-2.8600000000000136,96,100,1.34,RU,1712547414
334,debesy,57.6529,53.8049,-0.5600000000000023,86,94,1.88,RU,1712547592
335,la mira,18.035,-102.3266,22.060000000000002,78,13,1.97,MX,1712547592
336,agat village,13.3886,144.6585,31.24000000000001,70,19,3.13,GU,1712547378
337,yung shue wan,22.2333,114.1167,29.220000000000027,84,100,2.73,HK,1712547592
338,at taj,24.2049,23.2857,16.74000000000001,23,0,3.77,LY,1712547592
339,ishigaki,24.3448,124.1572,27.220000000000027,89,75,4.63,JP,1712547593
340,mount isa,-20.7333,139.5,30.019999999999982,26,5,4.63,AU,1712547391
341,mariental,-24.6333,17.9667,11.939999999999998,52,0,3.17,NA,1712547593
342,margate,51.3813,1.3862,9.980000000000018,88,69,0.89,GB,1712547411
343,bahia honda,22.9036,-83.1592,20.120000000000005,65,1,2.64,CU,1712547593
344,floro,61.5996,5.0328,8.189999999999998,81,100,12.35,NO,1712547250
345,capitan bado,-23.2667,-55.5333,22.170000000000016,90,100,4.64,PY,1712547593
346,nikolayevsk-on-amure,53.1406,140.73,-0.29000000000002046,93,99,3.13,RU,1712547352
347,cacu,-18.5567,-51.1308,25.5,72,100,1.83,BR,1712547594
348,visakhapatnam,17.69,83.2093,30.089999999999975,70,40,6.17,IN,1712547594
349,antalya,36.7741,30.7178,17.980000000000018,36,0,4.63,TR,1712547594
350,port-vila,-17.7338,168.3219,29.930000000000007,62,75,4.63,VU,1712547324
351,wahpeton,46.2652,-96.6059,5.100000000000023,100,100,5.14,US,1712547340
352,lovisa,60.4566,26.2251,3.089999999999975,96,8,3.37,FI,1712547595
353,island harbour,50.724,-1.2758,11.220000000000027,89,100,2.24,GB,1712547493
354,al qusayr,34.5091,36.5798,13.810000000000002,65,78,1.68,SY,1712547595
355,st. paul,44.9444,-93.0933,6.839999999999975,92,100,8.23,US,1712547360
356,vadso,70.0744,29.7487,-1.759999999999991,74,75,9.77,NO,1712547342
357,ridder,50.355,83.5133,11.509999999999991,61,20,0.59,KZ,1712547595
358,lerwick,60.1545,-1.1494,8.149999999999977,74,82,13.36,GB,1712547318
359,ferrara,44.8,11.8333,14.069999999999993,88,100,0.67,IT,1712547596
360,smithers,54.7804,-127.1743,5.329999999999984,60,100,5.66,CA,1712547309
361,jeddah,21.5169,39.2192,26.069999999999993,44,40,3.09,SA,1712547352
362,turinsk,58.0458,63.696,1.509999999999991,98,100,2.31,RU,1712547352
363,trinidad,-14.8333,-64.9,24.149999999999977,97,99,1.46,BO,1712547596
364,olonets,60.9847,32.9698,3.7099999999999795,97,69,5.23,RU,1712547597
365,nyurba,63.2842,118.3319,-2.3100000000000023,95,100,0.83,RU,1712547597
366,severo-yeniseyskiy,60.3725,93.0408,-5.639999999999986,83,62,0.89,RU,1712547346
367,deqen,29.9618,90.7188,6.329999999999984,15,39,6.1,CN,1712547597
368,lata,40.1629,-8.3327,14.870000000000005,73,100,3.84,PT,1712547155
369,cold lake,54.4502,-110.2017,7.1200000000000045,61,75,2.57,CA,1712547597
370,leava,-14.3,-178.1667,29.50999999999999,76,38,4.66,WF,1712547323
371,bubaque,11.2833,-15.8333,25.399999999999977,65,32,3.79,GW,1712547598
372,taulaga,-11.0553,-171.0883,30.30000000000001,70,4,2.18,AS,1712547398
373,mikuni,36.2171,136.1519,18.100000000000023,70,100,1.92,JP,1712547598
374,fort leonard wood,37.7057,-92.1572,16.25,27,0,2.57,US,1712547598
375,raton,36.9034,-104.4391,7.339999999999975,18,0,2.06,US,1712547599
376,sultanah,24.4926,39.5857,23.399999999999977,21,0,2.06,SA,1712547599
377,colonia,50.9333,6.95,14.199999999999989,86,0,4.63,DE,1712547512
378,spearfish,44.4908,-103.8594,2.2900000000000205,89,100,3.09,US,1712547599
379,pordic,48.5705,-2.8178,10.339999999999975,90,0,4.12,FR,1712547599
380,lazaro cardenas,17.9583,-102.2,22.94999999999999,82,14,2.0,MX,1712547357
381,pitimbu,-7.4706,-34.8086,26.480000000000018,80,58,3.56,BR,1712547600
382,igrim,63.1906,64.4162,-3.420000000000016,78,42,3.89,RU,1712547600
383,bielefeld,52.0333,8.5333,13.509999999999991,98,100,3.26,DE,1712547600
384,catemaco,18.4167,-95.1167,25.420000000000016,66,14,1.11,MX,1712547600
385,tanabe,33.7333,135.3667,20.70999999999998,73,75,1.54,JP,1712547600
386,woolgoolga,-30.1106,153.2007,26.079999999999984,79,93,3.68,AU,1712547600
387,weno,7.4515,151.8468,31.120000000000005,79,100,2.57,FM,1712547214
388,minbu,20.1833,94.8833,36.94,34,0,0.37,MM,1712547601
389,port blair,11.6667,92.75,32.170000000000016,66,20,1.03,IN,1712547601
390,severodvinsk,64.5635,39.8302,-2.7900000000000205,97,100,3.04,RU,1712547539
391,bikenibeu village,1.3673,173.1241,28.600000000000023,82,30,7.59,KI,1712547353
392,shingu,33.7333,135.9833,16.980000000000018,95,100,2.65,JP,1712547383
393,kalaleh,37.3807,55.4916,12.930000000000007,82,100,0.0,IR,1712547602
394,bayganin,48.6947,55.8742,7.509999999999991,84,86,5.91,KZ,1712547602
395,namibe,-15.1961,12.1522,21.80000000000001,79,89,2.07,AO,1712547213
396,new norfolk,-42.7826,147.0587,18.439999999999998,53,87,3.42,AU,1712547176
397,fada,9.5667,8.3,24.339999999999975,63,94,0.28,NG,1712547391
398,dryden,49.7833,-92.7503,6.310000000000002,31,20,4.12,CA,1712547374
399,saint-pierre,-21.3393,55.4781,24.970000000000027,65,0,3.09,RE,1712547233
400,tobarra,38.5921,-1.6919,12.470000000000027,70,96,4.06,ES,1712547603
401,qingnian,36.8456,115.7117,25.94999999999999,28,2,3.47,CN,1712547603
402,pachino,36.7186,15.0907,15.70999999999998,58,0,3.58,IT,1712547603
403,hermiston,45.8404,-119.2895,13.050000000000011,54,20,4.63,US,1712547603
404,mata-utu,-13.2816,-176.1745,29.879999999999995,73,88,3.09,WF,1712547361
405,elverum,60.8819,11.5623,3.6999999999999886,99,100,2.9,NO,1712547604
406,wenxing,28.6667,112.8833,18.75,72,77,2.82,CN,1712547604
407,port saint john's,-31.6229,29.5448,20.860000000000014,79,100,7.14,ZA,1712547508
408,malakal,9.5334,31.6605,25.439999999999998,71,37,1.42,SS,1712547604
409,san blas,21.5167,-105.2667,26.089999999999975,81,59,1.03,MX,1712547604
410,enewetak,11.3474,162.3373,27.680000000000007,79,50,8.44,MH,1712547158
411,ebaye,8.7748,167.7392,31.160000000000025,66,0,9.77,MH,1712547605
412,katima mulilo,-17.5,24.2667,19.160000000000025,93,100,1.95,NA,1712547605
413,meadow lakes,61.6247,-149.6011,5.6200000000000045,56,0,3.09,US,1712547392
414,hazard,37.2495,-83.1932,16.980000000000018,64,37,1.8,US,1712547605
415,moranbah,-22.0016,148.0466,31.160000000000025,38,51,3.57,AU,1712547334
416,portland,45.5234,-122.6762,10.480000000000018,88,100,2.57,US,1712547451
417,qurayyat,31.3318,37.3428,11.25,62,0,2.06,SA,1712547606
418,ola,59.5833,151.2833,0.7799999999999727,82,100,11.94,RU,1712547345
419,hovd,48.0056,91.6419,9.620000000000005,45,100,2.08,MN,1712547369
420,seria,4.6167,114.3167,33.26999999999998,70,68,3.15,BN,1712547607
421,cockburn town,21.4612,-71.1419,24.589999999999975,71,5,5.58,TC,1712547207
422,carutapera,-1.195,-46.02,24.870000000000005,92,100,1.84,BR,1712547373
423,broome,42.2506,-75.833,5.490000000000009,74,0,0.45,US,1712547319
424,laguna,38.421,-121.4238,15.230000000000018,52,0,1.54,US,1712547338
425,sretensk,52.2453,117.7093,2.829999999999984,28,0,2.73,RU,1712547608
426,jatai,-17.8814,-51.7144,20.899999999999977,91,68,1.25,BR,1712547063
427,general acha,-37.377,-64.6043,18.850000000000023,63,92,6.7,AR,1712547520
428,kapa'a,22.0752,-159.319,27.139999999999986,78,100,7.2,US,1712547530
429,atbasar,51.8,68.3333,8.699999999999989,93,83,2.31,KZ,1712547608
430,laascaanood,8.4774,47.3597,23.660000000000025,83,70,2.88,SO,1712547500
431,yuzhno-kurilsk,44.0306,145.8556,6.470000000000027,97,100,3.12,RU,1712547321
432,brisas de zicatela,15.8369,-97.0419,26.95999999999998,73,0,3.08,MX,1712547396
433,amga,60.8953,131.9608,-3.3100000000000023,82,100,2.97,RU,1712547371
434,palmeira,-25.4294,-50.0064,16.870000000000005,96,99,1.26,BR,1712547308
435,kavieng,-2.5744,150.7967,28.689999999999998,77,96,4.0,PG,1712547314
436,dolinsk,47.35,142.8,11.060000000000002,65,48,6.93,RU,1712547610
437,weleri,-6.9713,110.0666,31.089999999999975,68,99,1.72,ID,1712547610
438,muisne,0.6,-80.0333,25.54000000000002,82,93,1.89,EC,1712547513
439,aripuana,-9.1667,-60.6333,23.079999999999984,99,66,0.21,BR,1712547386
440,necochea,-38.5473,-58.7368,16.430000000000007,72,75,4.24,AR,1712547300
441,bujaru,-1.515,-48.0447,23.360000000000014,99,100,0.51,BR,1712547611
442,barro alto,-11.7608,-41.9117,20.220000000000027,94,37,2.06,BR,1712547611
443,newman,37.3138,-121.0208,13.139999999999986,75,7,1.34,US,1712547533
444,sierra grande,-41.606,-65.3557,20.069999999999993,33,100,5.71,AR,1712547611
445,qarqaraly,49.4058,75.4742,11.649999999999977,48,83,3.57,KZ,1712547611
446,sao jose da coroa grande,-8.8978,-35.1478,26.779999999999973,83,96,2.66,BR,1712547389
447,brookings,44.3114,-96.7984,5.810000000000002,95,100,4.63,US,1712547363
448,great falls,47.5002,-111.3008,4.810000000000002,76,100,0.0,US,1712547485
449,svetogorsk,61.1121,28.8632,3.6899999999999977,93,8,5.06,RU,1712547612
450,montevideo,-34.8335,-56.1674,16.99000000000001,100,0,0.0,UY,1712547559
451,tchintabaraden,15.8969,5.7985,26.189999999999998,14,45,1.73,NE,1712547348
452,valley city,46.9233,-98.0032,3.4399999999999977,100,100,4.63,US,1712547359
453,pucon,-39.2822,-71.9543,12.939999999999998,96,97,0.64,CL,1712547525
454,pisco,-13.7,-76.2167,22.180000000000007,78,0,4.63,PE,1712547225
455,arraial do cabo,-22.9661,-42.0278,24.19999999999999,86,7,5.76,BR,1712547278
456,ghormach,35.7306,63.7826,18.569999999999993,43,92,0.2,AF,1712547613
457,kunduz,36.75,68.75,20.600000000000023,47,24,1.53,AF,1712547342
458,preobrazheniye,42.9019,133.9064,14.269999999999982,29,97,3.17,RU,1712547502
459,chinchilla,-26.75,150.6333,28.49000000000001,48,0,0.45,AU,1712547501
460,dawesville,30.9224,-84.0091,15.910000000000025,75,0,1.54,US,1712547614
461,kulunda,52.566,78.9385,6.860000000000014,72,100,3.52,RU,1712547614
462,'ali sabieh,11.1558,42.7125,22.819999999999993,87,48,5.14,DJ,1712547614
463,miquelon,47.0975,-56.3814,1.1499999999999773,81,100,12.45,PM,1712547615
464,sarankhola,22.3082,89.7897,32.379999999999995,39,94,1.47,BD,1712547615
465,watsa,3.0372,29.5355,18.680000000000007,99,100,1.84,CD,1712547615
466,huicungo,-7.2833,-76.8,22.779999999999973,99,99,0.74,PE,1712547615
467,tarko-sale,64.9225,77.785,-3.5299999999999727,95,100,12.28,RU,1712547615
468,hillsborough,37.5741,-122.3794,12.850000000000023,77,20,8.23,US,1712547615
469,alaghsas,17.0187,8.0168,25.720000000000027,14,31,2.45,NE,1712547616
470,gaiman,-43.2897,-65.4929,19.149999999999977,34,98,3.65,AR,1712547616
471,shimoda,34.6667,138.95,19.350000000000023,91,100,5.2,JP,1712547366
472,malabar,-33.9667,151.25,25.70999999999998,68,75,4.63,AU,1712547616
473,campo maior,-4.8278,-42.1686,23.20999999999998,99,92,1.48,BR,1712547499
474,barranco de loba,8.946,-74.1065,26.480000000000018,89,99,1.26,CO,1712547616
475,reggane,26.7158,0.1714,28.639999999999986,8,0,4.4,DZ,1712547396
476,kristiansund,63.1115,7.732,6.509999999999991,70,75,3.09,NO,1712547617
477,potchefstroom,-26.7167,27.1,15.560000000000002,80,96,8.95,ZA,1712547617
478,pudozh,61.8099,36.5345,4.560000000000002,100,100,6.26,RU,1712547617
479,luganville,-15.5333,167.1667,27.930000000000007,77,100,3.97,VU,1712547617
480,antsiranana,-12.2787,49.2917,25.569999999999993,78,20,4.12,MG,1712547373
481,manay,7.215,126.5397,30.089999999999975,61,49,5.65,PH,1712547618
482,isangel,-19.55,169.2667,29.20999999999998,70,75,1.03,VU,1712547318
483,selkirk,50.1436,-96.8845,8.519999999999982,53,100,4.45,CA,1712547568
484,cidreira,-30.1811,-50.2056,20.55000000000001,93,100,1.26,BR,1712547359
485,rodolfo sanchez taboada,31.7167,-116.5667,13.54000000000002,70,26,2.24,MX,1712547618
486,pokhara,28.2333,83.9833,27.660000000000025,14,1,2.8,NP,1712547542
487,priob'ye,62.5206,65.5964,-0.9499999999999886,90,93,3.59,RU,1712547619
488,villa gesell,-37.2639,-56.973,16.629999999999995,92,1,5.29,AR,1712547299
489,san antonio de pale,-1.4014,5.6325,28.439999999999998,78,88,4.04,GQ,1712547242
490,puri,19.8,85.85,27.439999999999998,43,0,1.48,IN,1712547619
491,rawson,-43.3002,-65.1023,18.779999999999973,41,92,4.51,AR,1712547392
492,thoen,17.6129,99.2161,40.93000000000001,25,6,1.75,TH,1712547620
493,mashhad,36.297,59.6062,16.230000000000018,48,75,2.06,IR,1712547620
494,huarmey,-10.0681,-78.1522,22.939999999999998,83,92,2.88,PE,1712547345
495,hyesan,41.4017,128.1778,14.980000000000018,38,98,4.39,KP,1712547620
496,kidal,18.4411,1.4078,26.610000000000014,6,0,3.51,ML,1712547620
497,wellston,39.1234,-82.5329,9.089999999999975,65,97,3.27,US,1712547621
498,ashland,40.8167,-82.2665,12.449999999999989,86,99,4.75,US,1712547321
499,rio preto da eva,-2.6994,-59.6997,23.420000000000016,98,85,1.35,BR,1712547621
500,colonia menno,-22.3667,-59.8167,24.25,97,100,3.95,PY,1712547362
501,bryne,58.7354,5.6477,8.610000000000014,89,0,7.2,NO,1712547622
502,khanty-mansiysk,61.0042,69.0019,-1.7900000000000205,86,40,5.0,RU,1712547346
503,betio village,1.358,172.9211,28.55000000000001,82,26,7.54,KI,1712547622
504,norderney,53.7,7.15,12.360000000000014,88,100,3.12,DE,1712547622
505,vernon,50.2581,-119.2691,11.490000000000009,42,91,2.24,CA,1712547177
506,nantucket,41.2835,-70.0995,2.2099999999999795,80,0,3.09,US,1712547075
507,happy valley-goose bay,53.3168,-60.3315,0.3199999999999932,43,75,1.54,CA,1712547524
508,coahuayana de hidalgo,18.7,-103.6583,20.670000000000016,84,27,1.28,MX,1712547359
509,onega,63.9061,38.1404,0.9399999999999977,100,100,3.08,RU,1712547623
510,canlaon,10.3864,123.1964,32.75,33,81,4.28,PH,1712547623
511,swan hill,-35.3378,143.5544,20.769999999999982,37,8,4.27,AU,1712547624
512,manta,-0.95,-80.7333,26.819999999999993,74,40,5.81,EC,1712547624
513,ghanzi,-21.5667,21.7833,20.600000000000023,68,100,4.06,BW,1712547624
514,goure,13.9835,10.2704,25.74000000000001,14,15,4.79,NE,1712547624
515,bir el ater,34.7449,8.0602,15.850000000000023,19,94,1.26,DZ,1712547625
516,tamanrasset,22.785,5.5228,23.100000000000023,11,0,7.72,DZ,1712547341
517,arvayheer,46.2639,102.775,5.269999999999982,60,100,3.49,MN,1712547625
518,moree,-29.4667,149.85,25.389999999999986,40,10,3.97,AU,1712547625
519,aitape,-3.1374,142.3475,29.00999999999999,76,100,3.19,PG,1712547357
520,opuwo,-18.0607,13.84,18.569999999999993,47,46,0.95,NA,1712547625
521,al mijlad,11.0333,27.7333,25.54000000000002,14,73,4.72,SD,1712547626
522,jamaame,0.0697,42.745,28.70999999999998,78,100,2.06,SO,1712547547
523,andkhoy,36.9529,65.1238,20.970000000000027,40,15,3.24,AF,1712547626
524,mindif,10.3976,14.4363,28.5,54,42,1.95,CM,1712547626
525,kavalerovo,44.2661,135.0572,8.230000000000018,62,41,5.81,RU,1712547363
526,mosjoen,65.836,13.1908,6.439999999999998,81,75,2.24,NO,1712547627
527,wenchang,30.904,118.4887,12.339999999999975,96,100,2.84,CN,1712547627
528,voinjama,8.4219,-9.7478,21.689999999999998,98,100,0.84,LR,1712547627
529,ciudad lazaro cardenas,17.9583,-102.2,22.94999999999999,82,14,2.0,MX,1712547382
530,ajdabiya,30.7554,20.2263,16.220000000000027,82,0,4.31,LY,1712547627
531,hasaki,35.7333,140.8333,22.529999999999973,76,100,4.23,JP,1712547192
532,holyhead,53.3062,-4.6321,10.149999999999977,93,100,6.69,GB,1712547541
533,ed damer,17.5928,33.9592,23.129999999999995,10,86,6.45,SD,1712547628
534,eastham,41.8301,-69.9739,5.1200000000000045,89,0,1.54,US,1712547628
535,ingeniero jacobacci,-41.3427,-69.5448,14.519999999999982,62,100,5.45,AR,1712547379
536,peniche,39.3558,-9.3811,15.870000000000005,92,86,9.39,PT,1712547628
537,porbandar,21.6422,69.6093,26.139999999999986,78,0,3.6,IN,1712547372
538,kertih,4.5141,103.4483,31.160000000000025,74,40,2.06,MY,1712547629
539,bleicherode,51.4403,10.572,16.470000000000027,83,100,2.08,DE,1712547629
540,culfa,38.9558,45.6308,9.079999999999984,76,100,3.58,AZ,1712547629
541,piacabucu,-10.4056,-36.4344,26.110000000000014,85,77,2.38,BR,1712547629
542,mersing,2.4312,103.8405,33.10000000000002,70,40,2.06,MY,1712547629
543,madhipura,25.9167,86.7833,34.94999999999999,13,4,2.45,IN,1712547629
544,dalby,-27.1833,151.2667,26.29000000000002,36,0,3.08,AU,1712547398
545,puerto aysen,-45.4,-72.7,5.7900000000000205,95,100,1.85,CL,1712547525
546,salym,60.0625,71.4789,-2.730000000000018,94,100,5.01,RU,1712547630
547,usinsk,65.9939,57.5281,-9.25,88,88,5.36,RU,1712547498
548,farasan,16.7022,42.1183,28.769999999999982,76,44,7.24,SA,1712547630
549,tsiroanomandidy,-18.7667,46.0333,21.620000000000005,80,56,0.61,MG,1712547630
550,curvelo,-18.7564,-44.4308,18.579999999999984,81,10,1.79,BR,1712547562
551,san jose del cabo,23.0589,-109.6977,21.670000000000016,74,0,5.14,MX,1712547631
552,ashburton,-37.8626,145.0794,22.29000000000002,49,27,0.89,AU,1712547631
553,sabang,5.8933,95.3214,29.110000000000014,71,27,4.96,ID,1712547498
554,banda aceh,5.5577,95.3222,31.05000000000001,64,79,5.34,ID,1712547375
555,makokou,0.5738,12.8642,21.55000000000001,99,100,0.97,GA,1712547377
556,porto novo,6.4965,2.6036,26.05000000000001,87,97,2.64,BJ,1712547530
557,sarangani,5.4033,125.4636,27.899999999999977,77,100,8.62,PH,1712547632
558,hotan,37.0997,79.9269,18.269999999999982,20,4,2.34,CN,1712547360
559,hilo,19.7297,-155.09,23.079999999999984,97,100,3.09,US,1712547141
560,santiago,-33.4569,-70.6483,22.69999999999999,44,0,2.57,CL,1712547278
561,talcahuano,-36.7167,-73.1167,14.970000000000027,88,0,4.63,CL,1712547632
562,srivardhan,18.0333,73.0167,30.29000000000002,43,0,4.95,IN,1712547633
563,tazovsky,67.4667,78.7,-3.519999999999982,94,100,7.37,RU,1712547342
564,nishon tumani,38.694,65.6751,15.29000000000002,58,0,2.06,UZ,1712547633
565,turpan,42.9333,89.1667,22.569999999999993,15,100,2.07,CN,1712547337
566,alice town,25.7167,-79.3,22.860000000000014,64,100,6.68,BS,1712547634
567,naantali,60.4674,22.0243,7.3799999999999955,81,0,6.17,FI,1712547634
568,tromso,69.6496,18.957,-1.839999999999975,93,100,2.57,NO,1712547518
569,benghazi,32.1167,20.0667,17.420000000000016,81,0,5.68,LY,1712547634
570,numan,9.4667,12.0333,30.060000000000002,43,11,1.75,NG,1712547634
571,vila velha,-20.3297,-40.2925,23.120000000000005,96,20,1.03,BR,1712547272
572,cam ranh,11.9214,109.1591,30.129999999999995,70,20,3.6,VN,1712547635
573,ulubey,40.8721,37.7588,5.220000000000027,81,76,2.01,TR,1712547635
574,abong mbang,3.9833,13.1833,20.720000000000027,93,100,0.59,CM,1712547635
575,al kharijah,25.4514,30.5464,15.879999999999995,31,0,1.06,EG,1712547635
576,nizhneangarsk,55.7833,109.55,-5.399999999999977,67,100,0.89,RU,1712547635
577,chernyshevsk,52.5243,117.0174,3.740000000000009,19,0,3.65,RU,1712547635
578,sleaford,52.9983,-0.4094,11.79000000000002,86,75,6.69,GB,1712547636
579,charters towers,-20.1,146.2667,32.839999999999975,32,97,2.77,AU,1712547355
580,tonghae,37.5439,129.1069,19.360000000000014,43,100,2.57,KR,1712547636
581,puerto lempira,15.2667,-83.7667,25.79000000000002,89,23,3.67,HN,1712547636
582,fairfield,41.2668,-73.3162,6.399999999999977,76,0,2.06,US,1712547548
583,alto barinas,8.5931,-70.2261,28.95999999999998,49,98,2.08,VE,1712547637
584,kuzhithurai,8.3167,77.1833,31.970000000000027,61,84,1.74,IN,1712547368
585,san pedro pochutla,15.7333,-96.4667,27.99000000000001,65,11,2.2,MX,1712547637
586,nuku'alofa,-21.1333,-175.2,28.339999999999975,74,40,7.72,TO,1712547637
587,pangkalanbuun,-2.6833,111.6167,34.829999999999984,47,100,1.39,ID,1712547637
588,nouna,12.7333,-3.8667,33.870000000000005,36,87,3.47,BF,1712547637
589,san miguel,13.4833,-88.1833,27.120000000000005,78,63,1.08,SV,1712547435
590,charlottetown,46.2352,-63.1267,0.5799999999999841,87,20,6.69,CA,1712547371
591,emerald,-23.5333,148.1667,30.899999999999977,40,35,3.57,AU,1712547377
592,bage,-31.3314,-54.1069,19.029999999999973,94,75,2.06,BR,1712547356
593,galliano,29.4422,-90.2992,22.930000000000007,83,75,2.57,US,1712547638
594,valparaiso,-33.0393,-71.6273,11.949999999999989,87,0,0.0,CL,1712547197
595,kalevala,65.2,31.1667,-2.579999999999984,89,98,2.68,RU,1712547638
596,sao miguel do araguaia,-13.275,-50.1628,23.620000000000005,92,82,1.98,BR,1712547639
597,caarapo,-22.6342,-54.8222,22.389999999999986,92,100,1.54,BR,1712547639
598,polyarnyy,69.1989,33.4478,-5.779999999999973,87,100,5.81,RU,1712547191
599,rikaze,29.25,88.8833,7.6200000000000045,19,1,2.69,CN,1712547640
600,qingyang,37.4958,121.2581,13.620000000000005,60,82,4.5,CN,1712547640
601,shizunai-furukawacho,42.3339,142.3669,9.410000000000025,89,70,4.88,JP,1712547640
602,afaahiti,-17.75,-149.2833,29.069999999999993,80,85,3.83,PF,1712547356
